name,category,lat,lon,brand,address,website,phone,district,street,price,popularity,characteristic
Giant,supermarket,1.3794345,103.88795,,Hougang Street 51,,,HOUGANG,Hougang Street 51,9.78 - 12.88,5,"#budget, #essentials"
NTUC FairPrice,supermarket,1.3923199,103.904213,NTUC Fairprice,Rivervale Crescent,https://www.fairprice.com.sg/,+65 6384 4711,SENGKANG,Rivervale Crescent,6.49 - 8.90,5,"#budget, #essentials"
NTUC FairPrice,supermarket,1.3575602,103.8841371,NTUC Fairprice,Hougang Street 21,,,HOUGANG,Hougang Street 21,8.82 - 13.67,3,"#budget, #essentials"
Giant,supermarket,1.3815806,103.8970373,,Compassvale Bow,,,SENGKANG,Compassvale Bow,4.80 - 8.47,3,"#budget, #essentials"
Giant Hypermarket,supermarket,1.3312172,103.9483149,Giant Hypermarket,Bedok Road,https://giant.sg/,+65 6243 5748,BEDOK,Bedok Road,3.19 - 7.75,3,"#budget, #essentials"
NTUC FairPrice Finest,supermarket,1.3014954,103.839658,,The Centrepoint,https://fairprice.com.sg/,+65 62631602,ORCHARD,The Centrepoint,4.90 - 8.68,5,"#budget, #essentials"
NTUC FairPrice Finest,supermarket,1.301342,103.9071774,,Marine Parade Central,https://www.fairprice.com.sg/,+65 6348 0826,MARINE PARADE,Marine Parade Central,7.54 - 12.02,5,"#budget, #essentials"
Cold Storage Fresh,supermarket,1.3001235,103.8560555,Cold Storage,Victoria Street Bugis Junction,https://www.coldstorage.com.sg/,+65 6336 1990,DOWNTOWN CORE,Victoria Street Bugis Junction,5.79 - 7.85,2,"#budget, #essentials"
NTUC FairPrice,supermarket,1.2925348,103.8113068,NTUC Fairprice,Dawson Road,,+65 64764471,QUEENSTOWN,Dawson Road,4.48 - 6.80,4,"#budget, #essentials"
NTUC FairPrice,supermarket,1.3128156,103.7658379,,Clementi Avenue 3,,,CLEMENTI,Clementi Avenue 3,9.41 - 12.01,2,"#budget, #essentials"
Giant,supermarket,1.441726,103.8250677,,"604 Sembawang Road, Sembawang Shopping Centre",,,SEMBAWANG,604 Sembawang Road,3.72 - 6.03,5,"#budget, #essentials"
Cold Storage,supermarket,1.3176941,103.7859561,,Holland Road,,,BUKIT TIMAH,Holland Road,8.17 - 11.90,5,"#budget, #essentials"
Giant,supermarket,1.3416023,103.6969558,,"Jurong West Street 61, Pioneer Mall",,,JURONG WEST,Jurong West Street 61,7.61 - 11.90,1,"#budget, #essentials"
Sheng Siong,supermarket,1.3255871,103.7251859,Sheng Siong,Yuan Ching Road,,,JURONG WEST,Yuan Ching Road,5.92 - 10.88,1,"#budget, #essentials"
Sheng Siong,supermarket,1.3221125,103.738207,,Teban Gardens Road,,,JURONG EAST,Teban Gardens Road,7.91 - 10.16,3,"#budget, #essentials"
Cold Storage,supermarket,1.3215309,103.9555771,,Eastwood Road,,,BEDOK,Eastwood Road,7.64 - 11.36,4,"#budget, #essentials"
Giant,supermarket,1.3586036,103.7492177,,Blk 376 Bukit Batok St 31,,,BUKIT BATOK,Blk 376 Bukit Batok St 31,6.02 - 8.32,4,"#budget, #essentials"
NTUC FairPrice,supermarket,1.3257807,103.9316518,NTUC FairPrice,Bedok North Street 1,,+65 64438038,BEDOK,Bedok North Street 1,6.63 - 11.06,3,"#budget, #essentials"
Sheng Siong,supermarket,1.3244941,103.9310939,Sheng Siong,New Upper Changi Road,https://www.shengsiong.com.sg,+65 62422824,BEDOK,New Upper Changi Road,5.82 - 9.10,4,"#budget, #essentials"
NTUC FairPrice,supermarket,1.3153813,103.7643947,NTUC Fairprice,The Clementi Mall,https://www.fairprice.com.sg/,+65 66594437,CLEMENTI,The Clementi Mall,4.39 - 7.70,1,"#budget, #essentials"
NTUC FairPrice,supermarket,1.350271,103.8485161,NTUC Fairprice,Bishan Place,https://www.fairprice.com.sg/,+65 6259 0461,BISHAN,Bishan Place,3.23 - 7.97,3,"#budget, #essentials"
NTUC Fairprice,supermarket,1.3238372,103.8557907,NTUC Fairprice,Whampoa Drive,https://www.fairprice.com.sg/,,NOVENA,Whampoa Drive,9.11 - 13.95,5,"#budget, #essentials"
Cold Storage Fresh,supermarket,1.3101598,103.7953924,,Holland Avenue,,+65 6468 5566,QUEENSTOWN,Holland Avenue,7.59 - 10.54,3,"#budget, #essentials"
Cold Storage,supermarket,1.3874746,103.8693009,,Seletar Road,,,SERANGOON,Seletar Road,6.85 - 11.56,2,"#budget, #essentials"
Cold Storage,supermarket,1.3916794,103.8948873,,Sengkang Square,https://coldstorage.com.sg,,SENGKANG,Sengkang Square,6.75 - 10.79,4,"#budget, #essentials"
Sheng Shiong,supermarket,1.3702891,103.8434139,,Ang Mo Kio Avenue 3,,,ANG MO KIO,Ang Mo Kio Avenue 3,9.05 - 11.79,2,"#budget, #essentials"
NTUC FairPrice Xtra,supermarket,1.3693018,103.8488529,,AMK Hub,https://fairprice.com.sg/,+65 64532521,ANG MO KIO,AMK Hub,6.67 - 11.35,2,"#budget, #essentials"
NTUC FairPrice,supermarket,1.3543366,103.8302338,NTUC Fairprice,Upper Thomson Road,https://www.fairprice.com.sg/,+65 6454 7738,BISHAN,Upper Thomson Road,7.10 - 11.13,1,"#budget, #essentials"
NTUC FairPrice,supermarket,1.2973182,103.8383052,NTUC FairPrice,"Killiney Road, Orchard Grand Court",https://www.fairprice.com.sg/,+65 67344450,RIVER VALLEY,Killiney Road,5.65 - 9.49,5,"#budget, #essentials"
Cold Storage,supermarket,1.3307365,103.7955242,,Fifth Avenue,https://coldstorage.com.sg/,,BUKIT TIMAH,Fifth Avenue,6.66 - 11.59,2,"#budget, #essentials"
Cold Storage,supermarket,1.3010098,103.8450553,,Orchard Road,https://coldstorage.com.sg/,+65 6238 6761,MUSEUM,Orchard Road,8.01 - 11.08,4,"#budget, #essentials"
NTUC FairPrice,supermarket,1.4363491,103.7857696,NTUC Fairprice,Woodlands Square,,,WOODLANDS,Woodlands Square,9.58 - 12.68,4,"#budget, #essentials"
NTUC FairPrice Finest,supermarket,1.3004599,103.8371761,,111 Somerset,,+65 62193378,ORCHARD,111 Somerset,7.66 - 10.35,4,"#budget, #essentials"
NTUC FairPrice Xtra,supermarket,1.3396665,103.7055473,,Jurong Central 3,,+65 6790 1477,JURONG WEST,Jurong Central 3,4.57 - 8.91,5,"#budget, #essentials"
NTUC FairPrice Xtra,supermarket,1.3510423,103.8722775,NTUC Fairprice,Serangoon Central,https://www.fairprice.com.sg/,,SERANGOON,Serangoon Central,7.66 - 10.96,3,"#budget, #essentials"
Giant,supermarket,1.3340708,103.7472706,,Jurong East Street 21,https://giant.sg/,+65 65643811,JURONG EAST,Jurong East Street 21,4.31 - 7.31,1,"#budget, #essentials"
Giant,supermarket,1.3779605,103.73864,,"Blk 475 Choa Chu Kang Ave 3, Sunshine PlaceX",,,CHOA CHU KANG,Blk 475 Choa Chu Kang Ave 3,4.05 - 8.01,4,"#budget, #essentials"
Sheng Siong,supermarket,1.3805261,103.7600191,Sheng Siong,Woodlands Road,,+65 6219 3106,CHOA CHU KANG,Woodlands Road,6.03 - 9.55,2,"#budget, #essentials"
Cold Storage,supermarket,1.3020336,103.8763916,,Stadium Walk,,,KALLANG,Stadium Walk,6.34 - 9.67,4,"#budget, #essentials"
NTUC FairPrice,supermarket,1.2760543,103.843136,NTUC Fairprice,Tanjong Pagar Road,,,OUTRAM,Tanjong Pagar Road,4.49 - 8.29,2,"#budget, #essentials"
NTUC FairPrice,supermarket,1.3382406,103.7783181,NTUC Fairprice,Jalan Anak Bukit,,,BUKIT TIMAH,Jalan Anak Bukit,5.57 - 9.59,4,"#budget, #essentials"
NTUC FairPrice,supermarket,1.3464969,103.7121589,,Boon Lay Place,,,JURONG WEST,Boon Lay Place,5.14 - 8.90,5,"#budget, #essentials"
NTUC FairPrice Finest,supermarket,1.3345959,103.9627854,NTUC Fairprice,Changi Business Park Central 1,https://www.fairprice.com.sg/,+65 64438547,TAMPINES,Changi Business Park Central 1,3.63 - 7.51,2,"#budget, #essentials"
NTUC FairPrice,supermarket,1.2829291,103.8175344,NTUC Fairprice,Bukit Merah Central,,,BUKIT MERAH,Bukit Merah Central,4.55 - 7.88,4,"#budget, #essentials"
NTUC FairPrice,supermarket,1.3239226,103.8098403,NTUC Fairprice,Bukit Timah Road,,+65 6469 6245,BUKIT TIMAH,Bukit Timah Road,5.21 - 8.93,2,"#budget, #essentials"
NTUC Fairprice Finest,supermarket,1.380491,103.7641782,NTUC Fairprice,Jelebu Road,,+65 6762 8876,BUKIT PANJANG,Jelebu Road,9.19 - 12.86,2,"#budget, #essentials"
NTUC FairPrice,supermarket,1.3521442,103.9444897,NTUC FairPrice,Tampines Mall,,,TAMPINES,Tampines Mall,8.88 - 12.11,4,"#budget, #essentials"
NTUC Fairprice,supermarket,1.3724307,103.9496345,NTUC Fairprice,Pasir Ris Central Street 3,https://www.fairprice.com.sg/,+65 65850536,PASIR RIS,Pasir Ris Central Street 3,4.97 - 9.13,1,"#budget, #essentials"
Cold Storage,supermarket,1.2643809,103.820063,,Maritime Square,https://coldstorage.com.sg/,,BUKIT MERAH,Maritime Square,5.67 - 9.13,1,"#budget, #essentials"
CS Fresh,supermarket,1.2938703,103.8319081,,Kim Seng Road,,,SINGAPORE RIVER,Kim Seng Road,4.73 - 6.98,4,"#budget, #essentials"
Cold Storage,supermarket,1.2994693,103.787506,,Fusionopolis Way,,,QUEENSTOWN,Fusionopolis Way,9.31 - 13.71,4,"#budget, #essentials"
Cold Storage,supermarket,1.3021406,103.8353196,,Orchard Road,https://coldstorage.com.sg/,,ORCHARD,Orchard Road,6.94 - 9.81,4,"#budget, #essentials"
Cold Storage,supermarket,1.3037215,103.7657354,,West Coast Road,,,CLEMENTI,West Coast Road,4.93 - 7.89,5,"#budget, #essentials"
Cold Storage Fresh,supermarket,1.3070599,103.7879849,The Star Vista,Vista Exchange Green,https://coldstorage.com.sg/,+65 66943224,QUEENSTOWN,Vista Exchange Green,6.41 - 11.38,1,"#budget, #essentials"
Cold Storage,supermarket,1.3168348,103.8434897,,Thomson Road,,,NOVENA,Thomson Road,4.10 - 8.18,5,"#budget, #essentials"
Grindelwald,supermarket,1.3220913,103.7702616,,Clementi Street 11,,+65 6775 4947,CLEMENTI,Clementi Street 11,3.51 - 6.07,5,"#budget, #essentials"
Cold Storage,supermarket,1.3501335,103.8732256,Cold Storage,Serangoon Central,https://coldstorage.com.sg/,,SERANGOON,Serangoon Central,8.88 - 11.88,1,"#budget, #essentials"
Cold Storage,supermarket,1.3539198,103.9452276,,Tampines 1,https://coldstorage.com.sg/,,TAMPINES,Tampines 1,3.22 - 6.59,1,"#budget, #essentials"
Cold Storage,supermarket,1.3593977,103.8849418,,Hougang Street 21,,,HOUGANG,Hougang Street 21,9.70 - 14.55,1,"#budget, #essentials"
Cold Storage Fresh,supermarket,1.2934639,103.8531044,Cold Storage,North Bridge Road Raffles City,,,DOWNTOWN CORE,North Bridge Road Raffles City,5.14 - 9.50,4,"#budget, #essentials"
CS Fresh Gold,supermarket,1.3035875,103.8359057,,Orchard Road,https://coldstorage.com.sg/,,ORCHARD,Orchard Road,8.20 - 11.39,3,"#budget, #essentials"
Cold Storage Fresh Gold,supermarket,1.3048473,103.8242276,Cold Storage,Tanglin Road Tanglin Mall,https://coldstorage.com.sg/,,ORCHARD,Tanglin Road Tanglin Mall,8.26 - 11.71,3,"#budget, #essentials"
CS Fresh,supermarket,1.3049612,103.9052732,,East Coast Road,,,MARINE PARADE,East Coast Road,6.97 - 9.12,1,"#budget, #essentials"
Cold Storage,supermarket,1.3235953,103.7675432,,Sunset Way,https://coldstorage.com.sg/,,CLEMENTI,Sunset Way,6.00 - 10.87,3,"#budget, #essentials"
Sheng Siong,supermarket,1.3381024,103.9234133,Sheng Siong,Bedok Reservoir Road,,,BEDOK,Bedok Reservoir Road,4.95 - 7.55,1,"#budget, #essentials"
Sheng Siong,supermarket,1.3150492,103.7711263,,Clementi Avenue 2,,,CLEMENTI,Clementi Avenue 2,6.72 - 10.40,5,"#budget, #essentials"
NTUC FairPrice,supermarket,1.3144431,103.7711879,NTUC Fairprice,Clementi Avenue 2,,,CLEMENTI,Clementi Avenue 2,9.81 - 12.57,2,"#budget, #essentials"
Giant,supermarket,1.3201477,103.8873042,,Aljunied Avenue 2,,,GEYLANG,Aljunied Avenue 2,8.08 - 11.90,2,"#budget, #essentials"
Giant,supermarket,1.4403979,103.8005616,,"70 Woodlands Ave 7, Admiralty MRT Station",,,WOODLANDS,70 Woodlands Ave 7,8.46 - 12.19,4,"#budget, #essentials"
NTUC FairPrice,supermarket,1.2855811,103.8451805,NTUC FairPrice,Chinatown Point,https://fairprice.com.sg/,+65 67020381,OUTRAM,Chinatown Point,6.61 - 9.89,2,"#budget, #essentials"
NTUC FairPrice,supermarket,1.3115258,103.8563897,NTUC FairPrice,Kitchener Road,https://www.fairprice.com.sg/,+65 6509 6260,KALLANG,Kitchener Road,7.61 - 10.50,5,"#budget, #essentials"
Cold Storage,supermarket,1.320133,103.843935,Cold Storage,Thomson Road,https://coldstorage.com.sg/,,NOVENA,Thomson Road,7.34 - 10.11,3,"#budget, #essentials"
Giant,supermarket,1.4456477,103.7979298,,"Blk 768 Woodlands Ave 6, Woodlands Mart",,,WOODLANDS,Blk 768 Woodlands Ave 6,5.21 - 9.56,4,"#budget, #essentials"
NTUC FairPrice,supermarket,1.430908,103.7907695,,Woodlands Avenue 1,,+65 6339 2996,WOODLANDS,Woodlands Avenue 1,7.06 - 11.98,3,"#budget, #essentials"
Giant,supermarket,1.4425618,103.7904903,,"Blk 883 Woodlands St 82, Woodlands North Plaza",,,WOODLANDS,Blk 883 Woodlands St 82,5.32 - 7.89,3,"#budget, #essentials"
Cold Storage,supermarket,1.4292976,103.8357691,,Yishun Avenue 2,,,YISHUN,Yishun Avenue 2,9.07 - 12.28,2,"#budget, #essentials"
Sheng Siong,supermarket,1.310071,103.7687703,Sheng Siong,Clementi Avenue 1,,,CLEMENTI,Clementi Avenue 1,8.92 - 13.19,1,"#budget, #essentials"
NTUC FairPrice,supermarket,1.3571301,103.8438701,NTUC Fairprice,Bishan Street 24,,,BISHAN,Bishan Street 24,8.56 - 10.98,2,"#budget, #essentials"
Nafisa Grocery Store,supermarket,1.3417884,103.6885444,,Jurong West Street 91,,,JURONG WEST,Jurong West Street 91,5.49 - 7.71,4,"#budget, #essentials"
NTUC Fairprice,supermarket,1.3269686,103.8464206,NTUC Fairprice,Ah Hood Road,,,NOVENA,Ah Hood Road,3.40 - 6.22,1,"#budget, #essentials"
FairPrice Finest,supermarket,1.3036947,103.9029454,,Marine Parade Road,,,MARINE PARADE,Marine Parade Road,8.67 - 11.70,4,"#budget, #essentials"
Sheng Siong,supermarket,1.3014833,103.7985027,Sheng Siong,Tanglin Halt Road,https://www.shengsiong.com.sg,,QUEENSTOWN,Tanglin Halt Road,9.07 - 11.07,4,"#budget, #essentials"
Sheng Siong,supermarket,1.4315023,103.7737451,,Woodlands Street 31,,,WOODLANDS,Woodlands Street 31,5.09 - 7.51,5,"#budget, #essentials"
Cold Storage,supermarket,1.3098863,103.902122,,Joo Chiat Road,,,MARINE PARADE,Joo Chiat Road,7.73 - 11.79,4,"#budget, #essentials"
NTUC FairPrice,supermarket,1.3970146,103.7472724,NTUC Fairprice,Choa Chu Kang Drive,,+65 6769 3819,CHOA CHU KANG,Choa Chu Kang Drive,9.93 - 13.09,5,"#budget, #essentials"
Sheng Siong,supermarket,1.3783815,103.7538826,,Teck Whye Lane,,,CHOA CHU KANG,Teck Whye Lane,9.01 - 12.42,3,"#budget, #essentials"
NTUC Fairprice,supermarket,1.3088289,103.8619207,NTUC Fairprice,French Road,,,KALLANG,French Road,4.75 - 6.78,2,"#budget, #essentials"
Giant,supermarket,1.3321583,103.8573011,,Blk 260 Kim Keat Avenue,,,TOA PAYOH,Blk 260 Kim Keat Avenue,8.75 - 13.40,5,"#budget, #essentials"
Cold Storage,supermarket,1.3075324,103.8289836,,Orchard Road,,,ORCHARD,Orchard Road,9.64 - 14.16,1,"#budget, #essentials"
Bes Price Minimart,supermarket,1.312588,103.9000383,,Joo Chiat Road,,,GEYLANG,Joo Chiat Road,5.70 - 10.69,4,"#budget, #essentials"
Gateway Minimart & Trading,supermarket,1.3146529,103.8985494,,Joo Chiat Road,,,GEYLANG,Joo Chiat Road,4.98 - 8.09,4,"#budget, #essentials"
Al Barakah,supermarket,1.3151015,103.8982503,,Joo Chiat Road,,,GEYLANG,Joo Chiat Road,7.38 - 10.87,4,"#budget, #essentials"
81 Wholesalers & Trading,supermarket,1.3142952,103.8988241,,Joo Chiat Road,,,GEYLANG,Joo Chiat Road,7.61 - 9.87,4,"#budget, #essentials"
Koryo Mart,supermarket,1.2804239,103.8473639,,Telok Ayer Street,http://www.koryo.com.sg/,+65 6423 0115,OUTRAM,Telok Ayer Street,4.15 - 7.80,3,"#budget, #essentials"
Tanjong Hwaro,supermarket,1.2782263,103.8438656,,Tanjong Pagar Road,http://www.koryo.com.sg/,+65 6222 1646,OUTRAM,Tanjong Pagar Road,6.97 - 9.30,2,"#budget, #essentials"
Cold Storage,supermarket,1.2746068,103.8443166,,Enggor Street,,,DOWNTOWN CORE,Enggor Street,5.97 - 8.78,4,"#budget, #essentials"
NTUC Fairprice,supermarket,1.3049616,103.7814866,NTUC Fairprice,Dover Crescent,https://www.fairprice.com.sg/,+65 6552 2722,QUEENSTOWN,Dover Crescent,9.64 - 12.67,1,"#budget, #essentials"
Giant,supermarket,1.3102679,103.7880372,,Ghim Moh Road,https://www.giantsingapore.com.sg/,+65 6466 5996,QUEENSTOWN,Ghim Moh Road,6.51 - 10.59,1,"#budget, #essentials"
NTUC FairPrice,supermarket,1.3328116,103.8472498,NTUC Fairprice,Lorong 6 Toa Payoh,,,TOA PAYOH,Lorong 6 Toa Payoh,8.89 - 12.52,1,"#budget, #essentials"
Sheng Siong,supermarket,1.3080768,103.7858814,Sheng Siong,Ghim Moh Link,https://www.shengsiong.com.sg/,+65 6268 9010,QUEENSTOWN,Ghim Moh Link,5.46 - 9.26,1,"#budget, #essentials"
Cold Storage,supermarket,1.3128367,103.9235157,,First Street,,,BEDOK,First Street,7.53 - 11.12,3,"#budget, #essentials"
NTUC Fairprice,supermarket,1.3561808,103.9863723,NTUC Fairprice,Airport Boulevard,https://www.fairprice.com.sg/,+65 6242 6653,CHANGI,Airport Boulevard,9.30 - 11.41,4,"#budget, #essentials"
CS Fresh,supermarket,1.3227092,103.8144067,,Upper Bukit Timah Road,https://coldstorage.com.sg/,+65 6763 0815,TANGLIN,Upper Bukit Timah Road,3.98 - 6.88,1,"#budget, #essentials"
Giant Express,supermarket,1.3481032,103.6855222,,"Students Walk, NTU Canteen 2",,,WESTERN WATER CATCHMENT,Students Walk,4.62 - 8.89,3,"#budget, #essentials"
Giant,supermarket,1.3786855,103.7728973,,Blk 256 Bangkit Road,,,BUKIT PANJANG,Blk 256 Bangkit Road,7.86 - 9.89,1,"#budget, #essentials"
Sheng Siong,supermarket,1.3879115,103.7699226,Sheng Siong,Segar Road,,,BUKIT PANJANG,Segar Road,7.03 - 10.50,3,"#budget, #essentials"
Cold Storage,supermarket,1.3017518,103.7695285,,Clementi Road,,,CLEMENTI,Clementi Road,6.08 - 9.20,2,"#budget, #essentials"
NTUC Fairprice,supermarket,1.3142787,103.8887345,NTUC Fairprice,Geylang Lorong 38,,,GEYLANG,Geylang Lorong 38,7.63 - 9.63,4,"#budget, #essentials"
Cold Storage,supermarket,1.2920393,103.8425504,,Clemenceau Avenue,https://coldstorage.com.sg/,,SINGAPORE RIVER,Clemenceau Avenue,7.29 - 10.00,3,"#budget, #essentials"
NTUC Fairprice,supermarket,1.4069699,103.9016244,NTUC Fairprice,Waterway Point,,+65 6385 8959,PUNGGOL,Waterway Point,3.30 - 7.67,1,"#budget, #essentials"
FairPrice,supermarket,1.3665818,103.8415821,,Ang Mo Kio Street 22,,,ANG MO KIO,Ang Mo Kio Street 22,6.29 - 8.68,4,"#budget, #essentials"
Sheng Siong,supermarket,1.3529769,103.7437581,Sheng Siong,Bukit Batok West Avenue 6,,,BUKIT BATOK,Bukit Batok West Avenue 6,8.79 - 13.05,3,"#budget, #essentials"
Sheng Siong,supermarket,1.3555088,103.7392341,,Bukit Batok West Avenue 8,,,BUKIT BATOK,Bukit Batok West Avenue 8,4.17 - 6.99,1,"#budget, #essentials"
Sheng Siong,supermarket,1.3324563,103.9255968,,Bedok North Street 3,,,BEDOK,Bedok North Street 3,5.73 - 10.40,5,"#budget, #essentials"
NTUC Fairprice,supermarket,1.3076622,103.8848527,NTUC Fairprice,Jalan Tiga,,+65 6242 5707,GEYLANG,Jalan Tiga,8.82 - 11.12,1,"#budget, #essentials"
Ellyza Frozen Food,supermarket,1.4405928,103.8018411,,Woodlands Avenue 6,https://ellyza.myshopify.com/,97721226,WOODLANDS,Woodlands Avenue 6,8.75 - 13.35,3,"#budget, #essentials"
Ang Mo Supermarket,supermarket,1.3362868,103.8480895,,Lorong 4 Toa Payoh,,,TOA PAYOH,Lorong 4 Toa Payoh,7.99 - 12.86,2,"#budget, #essentials"
HAO Eccellente,supermarket,1.3149206,103.8945139,,Tanjong Katong Road,https://www.haomart.com.sg/,,GEYLANG,Tanjong Katong Road,6.24 - 9.34,4,"#budget, #essentials"
Cold Storage,supermarket,1.2470189,103.8397133,Cold Storage,Cove Avenue,,,SOUTHERN ISLANDS,Cove Avenue,8.13 - 10.27,5,"#budget, #essentials"
Sheng Siong,supermarket,1.312653,103.8786231,Sheng Siong,Lorong 15 Geylang,https://www.shengsiong.com.sg/,+65 6846 1766,GEYLANG,Lorong 15 Geylang,6.31 - 10.23,1,"#budget, #essentials"
NTUC Fairprice,supermarket,1.3785209,103.7639776,NTUC Fairprice,Petir Road,https://www.fairprice.com.sg/,+65 6769 4868,BUKIT PANJANG,Petir Road,7.76 - 11.86,3,"#budget, #essentials"
Cold Storage,supermarket,1.294999,103.8591405,,"3 Temasek Boulevard, Suntec City",https://coldstorage.com.sg/,6336 6779,DOWNTOWN CORE,3 Temasek Boulevard,9.64 - 12.73,2,"#budget, #essentials"
Giant Express,supermarket,1.3421799,103.7761711,Giant Hypermarket,Upper Bukit Timah Road,,,BUKIT TIMAH,Upper Bukit Timah Road,5.49 - 10.13,5,"#budget, #essentials"
Sheng Siong,supermarket,1.2869661,103.8416702,Sheng Siong,Chin Swee Road,,,OUTRAM,Chin Swee Road,5.09 - 8.20,4,"#budget, #essentials"
Giant,supermarket,1.3497894,103.725451,,Jurong West Street 41,,,JURONG WEST,Jurong West Street 41,8.57 - 10.76,2,"#budget, #essentials"
Warehouse Club,supermarket,1.3272092,103.6786571,,Joon Koon Circle,http://www.warehouseclub.com.sg/,+65 6710 4584,PIONEER,Joon Koon Circle,8.36 - 12.14,4,"#budget, #essentials"
Giant,supermarket,1.3809089,103.8792312,,Buangkok Crescent,,,HOUGANG,Buangkok Crescent,6.14 - 8.28,3,"#budget, #essentials"
Sheng Siong,supermarket,1.3292654,103.88833,,Circuit Road,,,GEYLANG,Circuit Road,8.87 - 12.20,1,"#budget, #essentials"
NTUC Fairprice,supermarket,1.3850202,103.7604035,NTUC Fairprice,Senja Road,,+65 6763 1076,BUKIT PANJANG,Senja Road,4.85 - 8.04,5,"#budget, #essentials"
NTUC FairPrice,supermarket,1.371469,103.8470492,NTUC Fairprice,Ang Mo Kio Avenue 6,,,ANG MO KIO,Ang Mo Kio Avenue 6,9.37 - 11.56,4,"#budget, #essentials"
Cold Storage,supermarket,1.3501202,103.7494149,,Bukit Batok Central Link,,,BUKIT BATOK,Bukit Batok Central Link,9.72 - 14.32,1,"#budget, #essentials"
208e Geylang,supermarket,1.3119052,103.8765016,,Geylang Road,,,GEYLANG,Geylang Road,5.54 - 8.21,4,"#budget, #essentials"
Sheng Siong,supermarket,1.3757418,103.8718519,Sheng Siong,Serangoon North Avenue 5,,,SERANGOON,Serangoon North Avenue 5,6.08 - 8.73,3,"#budget, #essentials"
CS Fresh,supermarket,1.3636865,103.7643794,,Hillview Rise,https://coldstorage.com.sg/corporate/page/market-place,+65 67107161,BUKIT BATOK,Hillview Rise,4.74 - 9.19,5,"#budget, #essentials"
Giant,supermarket,1.3854121,103.7662073,,"Blk 524A Jelapang Road, Greenridge Shopping Centre",,,BUKIT PANJANG,Blk 524A Jelapang Road,4.00 - 8.63,3,"#budget, #essentials"
German Market Place,supermarket,1.3243853,103.8094584,,Bukit Timah Road,,,BUKIT TIMAH,Bukit Timah Road,5.62 - 8.42,4,"#budget, #essentials"
Eat Organic,supermarket,1.3245822,103.8091521,,Bukit Timah Road,,,BUKIT TIMAH,Bukit Timah Road,6.28 - 8.55,4,"#budget, #essentials"
Fortune Supermarket,supermarket,1.4556955,103.8145673,,Sembawang Drive,,,SEMBAWANG,Sembawang Drive,8.95 - 12.47,3,"#budget, #essentials"
Sheng Siong,supermarket,1.3079553,103.8572122,,Jalan Berseh,,,ROCHOR,Jalan Berseh,7.32 - 10.56,4,"#budget, #essentials"
Mannai Supermarket,supermarket,1.3044903,103.8545898,,Jalan Besar,,,ROCHOR,Jalan Besar,5.34 - 8.58,3,"#budget, #essentials"
Giant,supermarket,1.2826694,103.8257856,,Blk 26 Jalan Membina,,,BUKIT MERAH,Blk 26 Jalan Membina,8.88 - 11.38,2,"#budget, #essentials"
NTUC FairPrice,supermarket,1.2898277,103.8267592,NTUC Fairprice,Havelock Road,,,BUKIT MERAH,Havelock Road,4.57 - 8.72,3,"#budget, #essentials"
NTUC FairPrice,supermarket,1.3321123,103.9382333,NTUC Fairprice,Bedok North street 4,,,BEDOK,Bedok North street 4,3.16 - 6.00,3,"#budget, #essentials"
NTUC Fairprice,supermarket,1.3536024,103.9405041,NTUC Fairprice,Tampines Avenue 4,,,TAMPINES,Tampines Avenue 4,5.16 - 9.01,4,"#budget, #essentials"
NTUC Fairprice,supermarket,1.3091415,103.7928136,NTUC Fairprice,Holland Drive,,+65 6773 6387,QUEENSTOWN,Holland Drive,4.82 - 8.06,4,"#budget, #essentials"
NTUC FairPrice,supermarket,1.3345284,103.7201308,NTUC Fairprice,Yung Sheng Road,,,JURONG WEST,Yung Sheng Road,7.99 - 11.19,1,"#budget, #essentials"
Tampines Mart,supermarket,1.3543718,103.9600249,,Tampines Street 32,,,TAMPINES,Tampines Street 32,6.80 - 11.71,2,"#budget, #essentials"
Sheng Siong,supermarket,1.4110086,103.9003954,Sheng Siong,Sumang Link,,,PUNGGOL,Sumang Link,5.08 - 7.86,1,"#budget, #essentials"
U Stars Supermarket,supermarket,1.4054147,103.8968874,,Punggol Way,,,PUNGGOL,Punggol Way,5.73 - 8.45,3,"#budget, #essentials"
NTUC Fairprice,supermarket,1.4048623,103.9085261,NTUC Fairprice,Punggol Drive,,,PUNGGOL,Punggol Drive,6.47 - 9.97,1,"#budget, #essentials"
NTUC FairPrice,supermarket,1.3744432,103.8856498,NTUC Fairprice,Hougang Avenue 4,,,HOUGANG,Hougang Avenue 4,4.07 - 8.00,3,"#budget, #essentials"
Sheng Siong,supermarket,1.4336189,103.7799353,Sheng Siong,Woodlands Street 12,,,WOODLANDS,Woodlands Street 12,5.54 - 10.02,1,"#budget, #essentials"
NTUC Fairprice,supermarket,1.4399794,103.8005133,NTUC Fairprice,Woodlands Drive 71,,,WOODLANDS,Woodlands Drive 71,5.36 - 7.39,4,"#budget, #essentials"
U Stars Supermarket,supermarket,1.3964212,103.8890273,,Anchorvale Street,,,SENGKANG,Anchorvale Street,8.94 - 11.94,2,"#budget, #essentials"
NTUC FairPrice,supermarket,1.3633878,103.8354915,NTUC Fairprice,Sin Ming Avenue,,+65 6264 3165,BISHAN,Sin Ming Avenue,4.69 - 7.65,1,"#budget, #essentials"
Ang Mo Supermarket,supermarket,1.3687701,103.8346254,,Ang Mo Kio Street 21,,,ANG MO KIO,Ang Mo Kio Street 21,6.08 - 10.76,4,"#budget, #essentials"
Sheng Siong,supermarket,1.3023596,103.7637976,Sheng Siong,Clementi West Street 2,,,CLEMENTI,Clementi West Street 2,4.23 - 7.95,5,"#budget, #essentials"
Giant (Express),supermarket,1.346701,103.757482,,Blk 284 Bukit Batok East Avenue 3,,,BUKIT BATOK,Blk 284 Bukit Batok East Avenue 3,7.49 - 11.81,3,"#budget, #essentials"
NTUC FairPrice,supermarket,1.4290442,103.7811686,,Woodlands Avenue 1,,+65 6893 1203,WOODLANDS,Woodlands Avenue 1,9.61 - 12.11,1,"#budget, #essentials"
Giant,supermarket,1.3299687,103.9019594,,Ubi Avenue 1,,,GEYLANG,Ubi Avenue 1,8.01 - 10.10,3,"#budget, #essentials"
Giant,supermarket,1.3334291,103.914137,,Bedok Reservoir Road,,,BEDOK,Bedok Reservoir Road,9.08 - 13.50,4,"#budget, #essentials"
Sheng Siong,supermarket,1.3990861,103.8894388,Sheng Siong,Anchorvale Crescent,,,SENGKANG,Anchorvale Crescent,7.97 - 11.17,1,"#budget, #essentials"
U Stars Supermarket,supermarket,1.3326569,103.9145443,,Bedok Reservoir Road,,,BEDOK,Bedok Reservoir Road,9.80 - 12.21,4,"#budget, #essentials"
Little Farms,supermarket,1.3107524,103.795202,,Lorong Liput,,,QUEENSTOWN,Lorong Liput,7.74 - 10.10,3,"#budget, #essentials"
Little Farms,supermarket,1.2930751,103.8267442,,River Valley Road,,,TANGLIN,River Valley Road,9.98 - 13.41,1,"#budget, #essentials"
Sheng Siong,supermarket,1.3324962,103.8671383,Sheng Siong,Potong Pasir Avenue 2,https://corporate.shengsiong.com.sg/,+65 6908 4583,TOA PAYOH,Potong Pasir Avenue 2,9.08 - 12.05,1,"#budget, #essentials"
Ang Mo Supermarket,supermarket,1.3322734,103.8684226,,Potong Pasir Avenue 1,,,TOA PAYOH,Potong Pasir Avenue 1,5.52 - 9.12,3,"#budget, #essentials"
U Stars Xpress,supermarket,1.3175959,103.8524655,,Rangoon Road,,,KALLANG,Rangoon Road,7.24 - 11.29,1,"#budget, #essentials"
U Stars Mega Mart,supermarket,1.3778764,103.7494081,,Keat Hong Link,https://www.ustarssupermarket.sg,,CHOA CHU KANG,Keat Hong Link,8.64 - 10.98,5,"#budget, #essentials"
Sheng Siong,supermarket,1.3487508,103.7032901,Sheng Siong,Jurong West Avenue 5,,,JURONG WEST,Jurong West Avenue 5,6.17 - 10.97,4,"#budget, #essentials"
Prime,supermarket,1.3485988,103.6983097,,Jurong West Street 75,https://www.primesupermarket.com/,,JURONG WEST,Jurong West Street 75,3.29 - 7.62,1,"#budget, #essentials"
I-Tec,supermarket,1.3134045,103.8851494,,Geylang Road,,,GEYLANG,Geylang Road,8.78 - 11.23,4,"#budget, #essentials"
Sheng Siong,supermarket,1.3522389,103.715901,,Jurong West Street 42,https://www.shengsiong.com.sg/,6562 2820,JURONG WEST,Jurong West Street 42,6.46 - 10.66,5,"#budget, #essentials"
Swanston,supermarket,1.2854613,103.8430302,,New Market Road,https://www.facebook.com/Swanston-Your-Essential-Store-136511420255004/,+65 65356763,OUTRAM,New Market Road,6.46 - 10.68,1,"#budget, #essentials"
UnPackt,supermarket,1.3727295,103.8295882,,Jalan Kuras,,,ANG MO KIO,Jalan Kuras,4.29 - 9.28,3,"#budget, #essentials"
Cold Storage,supermarket,1.3107963,103.8638602,,Kallang Avenue,https://coldstorage.com.sg/,,KALLANG,Kallang Avenue,7.59 - 11.71,3,"#budget, #essentials"
HAO Eccellente,supermarket,1.2924588,103.8583556,,Raffles Boulevard,https://www.haomart.com.sg/eccellente/,,DOWNTOWN CORE,Raffles Boulevard,4.12 - 6.77,3,"#budget, #essentials"
NTUC FairPrice,supermarket,1.3209299,103.8702956,NTUC Fairprice,Kallang Bahru,,+65 6298 5369,KALLANG,Kallang Bahru,6.63 - 11.62,1,"#budget, #essentials"
NTUC FairPrice Finest,supermarket,1.2910424,103.8502148,,North Bridge Road,,,DOWNTOWN CORE,North Bridge Road,4.84 - 7.15,1,"#budget, #essentials"
NTUC FairPrice,supermarket,1.331674,103.8685537,NTUC Fairprice,Upper Serangoon Road,,,TOA PAYOH,Upper Serangoon Road,4.84 - 6.88,5,"#budget, #essentials"
NTUC FairPrice,supermarket,1.4289409,103.8359955,,Northpoint City,https://fairprice.com.sg/,+65 64813420,YISHUN,Northpoint City,3.28 - 6.88,4,"#budget, #essentials"
Sheng Siong,supermarket,1.4018757,103.8921304,Sheng Siong,Sumang Lane,,,PUNGGOL,Sumang Lane,6.43 - 10.67,5,"#budget, #essentials"
NTUC FairPrice,supermarket,1.3487949,103.8496434,NTUC Fairprice,Bishan Street 13,,,BISHAN,Bishan Street 13,4.30 - 6.46,4,"#budget, #essentials"
NTUC FairPrice Xtra,supermarket,1.3348478,103.9637744,NTUC Fairprice,Changi Business Park Avenue 1,https://www.fairprice.com.sg/,+65 66047548,TAMPINES,Changi Business Park Avenue 1,3.62 - 8.39,5,"#budget, #essentials"
NTUC Fairprice,supermarket,1.2864788,103.8083891,NTUC Fairprice,Jalan Bukit Merah,,,BUKIT MERAH,Jalan Bukit Merah,7.24 - 11.25,5,"#budget, #essentials"
NTUC Fairprice,supermarket,1.3485084,103.7241529,NTUC Fairprice,Jurong West Street 41,,,JURONG WEST,Jurong West Street 41,6.71 - 8.81,5,"#budget, #essentials"
NTUC FairPrice,supermarket,1.3920764,103.7429541,,Choa Chu Kang Street 51,,,CHOA CHU KANG,Choa Chu Kang Street 51,8.21 - 11.63,5,"#budget, #essentials"
NTUC FairPrice Finest,supermarket,1.3911684,103.8759756,NTUC FairPrice Finest,The Seletar Mall,https://fairprice.com.sg/,+65 63416177,SENGKANG,The Seletar Mall,5.88 - 10.80,5,"#budget, #essentials"
NTUC FairPrice,supermarket,1.4246275,103.8466717,NTUC Fairprice,Yishun Ring Road,,,YISHUN,Yishun Ring Road,3.64 - 5.92,2,"#budget, #essentials"
Cold Storage,supermarket,1.3314654,103.8067968,,Greenwood Avenue,,,BUKIT TIMAH,Greenwood Avenue,6.77 - 9.53,3,"#budget, #essentials"
Cold Storage,supermarket,1.2775827,103.8525052,,Straits View,,,DOWNTOWN CORE,Straits View,9.15 - 13.84,2,"#budget, #essentials"
Cold Storage,supermarket,1.3368125,103.783834,,Dunearn Road,,,BUKIT TIMAH,Dunearn Road,6.52 - 11.29,2,"#budget, #essentials"
Giant Express,supermarket,1.4499976,103.81414,,Blk 468B Admiralty Drive,,,SEMBAWANG,Blk 468B Admiralty Drive,4.63 - 7.87,1,"#budget, #essentials"
Giant,supermarket,1.3742656,103.8392817,,Blk 161 Ang Mo Kio Avenue 4,,,ANG MO KIO,Blk 161 Ang Mo Kio Avenue 4,3.34 - 8.22,1,"#budget, #essentials"
Sheng Siong,supermarket,1.319175,103.7333208,Sheng Shiong,Penjuru Walk,,+65 68980345,JURONG EAST,Penjuru Walk,3.97 - 7.97,1,"#budget, #essentials"
Sheng Siong,supermarket,1.3444059,103.7553403,,Bukit Batok East Avenue 6,,,BUKIT BATOK,Bukit Batok East Avenue 6,3.83 - 8.56,3,"#budget, #essentials"
Sheng Siong,supermarket,1.3474556,103.7437317,,Bukit Batok West Avenue 8,,,BUKIT BATOK,Bukit Batok West Avenue 8,8.21 - 10.53,5,"#budget, #essentials"
Sheng Siong,supermarket,1.4507862,103.7968231,,Woodlands Industrial Park E7,,,WOODLANDS,Woodlands Industrial Park E7,9.80 - 13.79,2,"#budget, #essentials"
Sheng Siong,supermarket,1.3839521,103.7708865,Sheng Siong,Fajar Road,,,BUKIT PANJANG,Fajar Road,3.71 - 6.59,2,"#budget, #essentials"
Sheng Siong,supermarket,1.4311005,103.7985065,,Woodlands Drive 16,,,WOODLANDS,Woodlands Drive 16,9.99 - 14.41,3,"#budget, #essentials"
Sheng Siong,supermarket,1.4468922,103.8055002,Sheng Siong,Woodlands Rise,https://www.shengsiong.com.sg/,+65 62590316,WOODLANDS,Woodlands Rise,6.87 - 9.01,2,"#budget, #essentials"
Sheng Siong,supermarket,1.4489117,103.8323549,,Canberra Street,,,SEMBAWANG,Canberra Street,9.94 - 13.23,1,"#budget, #essentials"
Sheng Siong,supermarket,1.4160254,103.8349534,Sheng Siong,Yishun Street 81,,,YISHUN,Yishun Street 81,5.18 - 7.82,5,"#budget, #essentials"
Sheng Siong,supermarket,1.4201172,103.8435501,,Yishun Avenue 4,,,YISHUN,Yishun Avenue 4,6.79 - 10.36,4,"#budget, #essentials"
Sheng Siong,supermarket,1.3561466,103.9459483,Sheng Siong,Tampines Central,,,TAMPINES,Tampines Central,3.17 - 7.15,2,"#budget, #essentials"
Sheng Siong,supermarket,1.3140474,103.8704826,,Upper Boon Keng Road,,,KALLANG,Upper Boon Keng Road,7.23 - 9.67,1,"#budget, #essentials"
Sheng Siong,supermarket,1.2954188,103.8100462,Sheng Siong,Dawson Road,,,QUEENSTOWN,Dawson Road,8.77 - 12.74,4,"#budget, #essentials"
Sheng Siong,supermarket,1.3216926,103.8596186,Sheng Siong,McNair Road,,,KALLANG,McNair Road,9.50 - 14.11,5,"#budget, #essentials"
Sheng Siong,supermarket,1.3313147,103.9366634,Sheng Siong,Bedok North Road,,,BEDOK,Bedok North Road,6.65 - 9.65,4,"#budget, #essentials"
Sheng Siong,supermarket,1.3670929,103.9647716,Sheng Siong,Pasir Ris Street 21,,,PASIR RIS,Pasir Ris Street 21,5.81 - 8.97,1,"#budget, #essentials"
Sheng Siong,supermarket,1.3696509,103.9479234,Sheng Siong,Pasir Ris Street 51,,,PASIR RIS,Pasir Ris Street 51,8.35 - 12.26,4,"#budget, #essentials"
Sheng Siong,supermarket,1.393146,103.8870307,Sheng Siong,Anchorvale Road,,,SENGKANG,Anchorvale Road,7.56 - 10.29,3,"#budget, #essentials"
Sheng Siong,supermarket,1.3518705,103.8360699,Sheng Siong,Upper Thomson Road,,,BISHAN,Upper Thomson Road,5.93 - 9.99,4,"#budget, #essentials"
Sheng Siong,supermarket,1.3783709,103.9419858,,Elias Road,,,PASIR RIS,Elias Road,6.05 - 10.97,2,"#budget, #essentials"
Sheng Siong,supermarket,1.3390393,103.8554033,Sheng Siong,Lorong 7 Toa Payoh,,,TOA PAYOH,Lorong 7 Toa Payoh,4.86 - 7.21,2,"#budget, #essentials"
Sheng Siong,supermarket,1.3917064,103.8801703,Sheng Siong,Fernvale Link,,+65 6312 9093,SENGKANG,Fernvale Link,5.18 - 7.20,3,"#budget, #essentials"
Sheng Siong,supermarket,1.3978089,103.8813041,Sheng Siong,Fernvale Street,,,SENGKANG,Fernvale Street,7.73 - 11.42,1,"#budget, #essentials"
Sheng Siong,supermarket,1.402634,103.9165726,Sheng Siong,Edgedale Plains,,,PUNGGOL,Edgedale Plains,5.62 - 7.92,2,"#budget, #essentials"
Sheng Siong,supermarket,1.4037905,103.9061683,Sheng Siong,Punggol Central,,,PUNGGOL,Punggol Central,8.87 - 12.76,5,"#budget, #essentials"
Giant,supermarket,1.4524553,103.8172929,,Sembawang Drive,,,SEMBAWANG,Sembawang Drive,4.92 - 8.48,2,"#budget, #essentials"
Giant,supermarket,1.4311426,103.7941833,,"Blk 548 Woodlands Drive 44, Vista Point",,,WOODLANDS,Blk 548 Woodlands Drive 44,3.56 - 7.67,2,"#budget, #essentials"
Giant,supermarket,1.3647722,103.847405,,Ang Mo Kio Street 31,,,ANG MO KIO,Ang Mo Kio Street 31,6.83 - 10.89,1,"#budget, #essentials"
Giant,supermarket,1.4057405,103.912079,,Blk 671 Edgefield Plains,,,PUNGGOL,Blk 671 Edgefield Plains,7.14 - 9.54,4,"#budget, #essentials"
Giant,supermarket,1.372842,103.8539753,,Blk 525 Ang Mo Kio Avenue 10,,,ANG MO KIO,Blk 525 Ang Mo Kio Avenue 10,7.27 - 9.76,2,"#budget, #essentials"
Giant,supermarket,1.4171386,103.832905,,"201 Yishun Avenue 2, Khatib MRT Station",,,YISHUN,201 Yishun Avenue 2,5.94 - 10.14,3,"#budget, #essentials"
Giant,supermarket,1.4005639,103.9105302,,Blk 622D Punggol Central,,,PUNGGOL,Blk 622D Punggol Central,5.45 - 9.81,4,"#budget, #essentials"
Giant,supermarket,1.4364339,103.8374596,,Blk 293 Yishun St 22,,,YISHUN,Blk 293 Yishun St 22,3.93 - 7.36,5,"#budget, #essentials"
Giant,supermarket,1.4250761,103.8473487,,Blk 418 Yishun Avenue 11,,,YISHUN,Blk 418 Yishun Avenue 11,3.82 - 6.85,1,"#budget, #essentials"
Giant Bishan 512,supermarket,1.3497162,103.8499272,,Bishan Street 13,,,BISHAN,Bishan Street 13,8.89 - 13.87,5,"#budget, #essentials"
Giant,supermarket,1.2777804,103.8192758,,Blk 8 Telok Blangah Crescent,,,BUKIT MERAH,Blk 8 Telok Blangah Crescent,6.66 - 9.54,4,"#budget, #essentials"
Giant,supermarket,1.2869001,103.8184225,,Blk 86 Redhill Close,,,BUKIT MERAH,Blk 86 Redhill Close,5.79 - 8.98,4,"#budget, #essentials"
Giant Express,supermarket,1.3833813,103.7711297,,"Blk 445 Fajar Road, Fajar Shopping Centre",,,BUKIT PANJANG,Blk 445 Fajar Road,8.04 - 10.81,4,"#budget, #essentials"
Giant,supermarket,1.3533018,103.8714468,,Serangoon Central Drive,,,SERANGOON,Serangoon Central Drive,7.07 - 10.24,5,"#budget, #essentials"
Giant Hougang 683,supermarket,1.3737908,103.8861522,,Hougang Avenue 8,,,HOUGANG,Hougang Avenue 8,5.85 - 8.47,4,"#budget, #essentials"
Giant,supermarket,1.3543836,103.9602606,,Tampines Street 32,,,TAMPINES,Tampines Street 32,5.37 - 7.59,5,"#budget, #essentials"
Giant,supermarket,1.3690709,103.9585122,,Pasir Ris Drive 4,,,PASIR RIS,Pasir Ris Drive 4,7.37 - 10.65,4,"#budget, #essentials"
Giant,supermarket,1.3749201,103.9369569,,Pasir Ris Street 71,,,PASIR RIS,Pasir Ris Street 71,8.08 - 10.81,3,"#budget, #essentials"
Giant,supermarket,1.3663512,103.9645143,,Pasir Ris Street 21,,,PASIR RIS,Pasir Ris Street 21,8.60 - 11.00,4,"#budget, #essentials"
Giant,supermarket,1.3492091,103.9348376,,Tampines Street 81,,,TAMPINES,Tampines Street 81,3.21 - 7.95,5,"#budget, #essentials"
Giant,supermarket,1.3337835,103.9308648,,Bedok North Street 3,,,BEDOK,Bedok North Street 3,7.76 - 10.47,2,"#budget, #essentials"
Giant,supermarket,1.3191162,103.8924825,,Paya Lebar Road,,,GEYLANG,Paya Lebar Road,3.70 - 6.29,4,"#budget, #essentials"
Giant,supermarket,1.3056156,103.9154038,,Marine Terrace,,,MARINE PARADE,Marine Terrace,5.84 - 9.96,2,"#budget, #essentials"
Ang Mo Supermarket,supermarket,1.4456364,103.8310112,,Canberra Crescent,,,SEMBAWANG,Canberra Crescent,3.77 - 6.21,3,"#budget, #essentials"
Ang Mo Supermarket,supermarket,1.3580864,103.8442103,Ang Mo,Bishan Street 24,,,BISHAN,Bishan Street 24,5.89 - 8.35,1,"#budget, #essentials"
Ang Mo Supermarket,supermarket,1.3618993,103.8554186,,Ang Mo Kio Avenue 10,,,ANG MO KIO,Ang Mo Kio Avenue 10,6.19 - 9.54,3,"#budget, #essentials"
Ang Mo Supermarket,supermarket,1.3716327,103.8802545,,Hougang Avenue 8,,,HOUGANG,Hougang Avenue 8,6.19 - 9.74,4,"#budget, #essentials"
Ang Mo Supermarket,supermarket,1.3994303,103.9161651,,Punggol Drive,,,PUNGGOL,Punggol Drive,7.72 - 9.95,2,"#budget, #essentials"
Ang Mo Supermarket,supermarket,1.3993974,103.9064796,,Punggol Field,,,PUNGGOL,Punggol Field,3.83 - 6.22,2,"#budget, #essentials"
Cold Storage,supermarket,1.3008369,103.9054998,,Marine Parade Road,,,MARINE PARADE,Marine Parade Road,7.30 - 10.93,5,"#budget, #essentials"
Cold Storage,supermarket,1.3008369,103.9054998,,Marine Parade Road,,,MARINE PARADE,Marine Parade Road,3.64 - 5.69,2,"#budget, #essentials"
Sheng Siong,supermarket,1.4428927,103.7748706,Sheng Siong,Marsiling Drive,,,WOODLANDS,Marsiling Drive,7.06 - 11.22,5,"#budget, #essentials"
Hao Mart,supermarket,1.3278267,103.8611225,,Jalan Tenteram,,,NOVENA,Jalan Tenteram,9.93 - 14.25,1,"#budget, #essentials"
Hao Mart,supermarket,1.3281476,103.8602173,,Jalan Tenteram,,,NOVENA,Jalan Tenteram,7.74 - 11.28,4,"#budget, #essentials"
Toy Station,supermarket,1.3225742,103.8137376,,Jalan Serene #02-09,,,TANGLIN,Jalan Serene #02-09,3.97 - 8.76,5,"#budget, #essentials"
Ang Mo Supermarket,supermarket,1.4462194,103.8143512,,Sembawang Crescent,,,SEMBAWANG,Sembawang Crescent,8.03 - 12.26,1,"#budget, #essentials"
NTUC Fairprice,supermarket,1.3361915,103.7868805,FairPrice Xpress,Binjai Park,,+65 64693737,BUKIT TIMAH,Binjai Park,5.47 - 9.85,2,"#budget, #essentials"
Prime,supermarket,1.3952215,103.8959287,,Compassvale Street,,,SENGKANG,Compassvale Street,5.04 - 9.79,2,"#budget, #essentials"
Meidi-Ya,supermarket,1.2939643,103.8319923,,Kim Seng Promenade,http://www.meidi-ya.com.sg/,+65 6771 1111,SINGAPORE RIVER,Kim Seng Promenade,7.84 - 11.93,1,"#budget, #essentials"
Selvi Stores,supermarket,1.3061466,103.8500303,,Buffalo Road,,,ROCHOR,Buffalo Road,4.58 - 8.05,5,"#budget, #essentials"
NTUC FairPrice,supermarket,1.334117,103.7403709,NTUC Fairprice,Jurong Gateway Road,,,JURONG EAST,Jurong Gateway Road,8.72 - 11.56,5,"#budget, #essentials"
Jmart,supermarket,1.364222,103.8489685,,Ang Mo Kio Street 32,,,ANG MO KIO,Ang Mo Kio Street 32,4.71 - 8.86,5,"#budget, #essentials"
Haniffa,supermarket,1.3058966,103.8526085,,Dunlop Road,,,ROCHOR,Dunlop Road,6.98 - 11.03,5,"#budget, #essentials"
Meidi-Ya,supermarket,1.2918384,103.8595448,,Raffles Boulevard,https://www.meidi-ya.com.sg/,+65 6339 1111,DOWNTOWN CORE,Raffles Boulevard,6.52 - 9.25,3,"#budget, #essentials"
Don Don Donki,supermarket,1.2635544,103.8202252,,Maritime Square,https://www.dondondonki.com/sg/,+65 6261 1211,BUKIT MERAH,Maritime Square,5.92 - 10.26,4,"#budget, #essentials"
Sheng Siong,supermarket,1.3610846,103.9374407,Sheng Siong,Tampines Avenue 9,,,TAMPINES,Tampines Avenue 9,7.46 - 11.56,3,"#budget, #essentials"
Sheng Siong,supermarket,1.3918936,103.871457,Sheng Siong,Sengkang West Avenue,,,SENGKANG,Sengkang West Avenue,4.62 - 8.71,1,"#budget, #essentials"
DON DON DONKI Jem,supermarket,1.3327906,103.7430876,,Jurong Gateway Road,https://www.dondondonki.com/sg/,+65 6694 1011,JURONG EAST,Jurong Gateway Road,8.06 - 12.19,4,"#budget, #essentials"
NTUC FairPrice Finest,supermarket,1.317775,103.8929956,,Paya Lebar Road,,,GEYLANG,Paya Lebar Road,4.17 - 7.51,5,"#budget, #essentials"
Value Dollar,supermarket,1.3337369,103.9142968,,Bedok Reservoir Road,,,BEDOK,Bedok Reservoir Road,5.99 - 8.54,2,"#budget, #essentials"
Interior Artist Pte Ltd,supermarket,1.3131662,103.8566188,,Serangoon Road,https://www.facebook.com/InteriorArtist.Sg,6588218968,KALLANG,Serangoon Road,4.72 - 9.37,5,"#budget, #essentials"
my Supermarket,supermarket,1.313576,103.8569542,,Serangoon Road,,,KALLANG,Serangoon Road,5.58 - 7.99,2,"#budget, #essentials"
The Captain Superstore,supermarket,1.3263118,103.8425333,,Balestier Road,,,NOVENA,Balestier Road,9.26 - 13.92,2,"#budget, #essentials"
NTUC Fairprice,supermarket,1.3085642,103.7847344,NTUC Fairprice,Ghim Moh Link,https://www.fairprice.com.sg/,6566942513,QUEENSTOWN,Ghim Moh Link,3.04 - 6.03,2,"#budget, #essentials"
Save Mart,supermarket,1.2814277,103.8421059,,Kreta Ayer Road,,+65 90199963,OUTRAM,Kreta Ayer Road,8.10 - 10.25,4,"#budget, #essentials"
Univers-Markt Enterprise Pte. Ltd.,supermarket,1.3110935,103.7716015,,Clementi Road,,6567751288,CLEMENTI,Clementi Road,6.60 - 10.42,2,"#budget, #essentials"
Free & Easy Minimart,supermarket,1.3137808,103.7624229,,Clementi Avenue 3,,,CLEMENTI,Clementi Avenue 3,4.59 - 8.66,2,"#budget, #essentials"
U Stars Supermarket @ 345,supermarket,1.3175955,103.7693303,,Clementi Avenue 5,https://www.ustarssupermarket.sg/,,CLEMENTI,Clementi Avenue 5,4.62 - 7.00,3,"#budget, #essentials"
Ramya Minimart,supermarket,1.3614167,103.9580841,,Tampines Street 45,,,TAMPINES,Tampines Street 45,5.03 - 9.60,5,"#budget, #essentials"
Ang Mo Supermarket,supermarket,1.4382576,103.803627,,Woodlands Avenue 6,,,WOODLANDS,Woodlands Avenue 6,5.52 - 8.91,4,"#budget, #essentials"
Sri Murugan,supermarket,1.3495601,103.9332669,,Tampines Street 81,,,TAMPINES,Tampines Street 81,3.38 - 8.16,2,"#budget, #essentials"
Prime Supermarket,supermarket,1.4447047,103.8159919,,Sembawang Crescent,,,SEMBAWANG,Sembawang Crescent,6.49 - 10.81,4,"#budget, #essentials"
U Stars Xpress,supermarket,1.3702816,103.8721951,,Serangoon North Avenue 1,,,SERANGOON,Serangoon North Avenue 1,5.97 - 9.22,3,"#budget, #essentials"
Krishna Stores,supermarket,1.3851473,103.7429918,,Choa Chu Kang Avenue 4,,,CHOA CHU KANG,Choa Chu Kang Avenue 4,4.41 - 8.38,4,"#budget, #essentials"
U Stars Supermarket,supermarket,1.2739509,103.8086629,,Telok Blangah Street 32,,,BUKIT MERAH,Telok Blangah Street 32,6.01 - 9.62,4,"#budget, #essentials"
U Stars Supermarket,supermarket,1.3510967,103.9293207,,Tampines Avenue 8,,,TAMPINES,Tampines Avenue 8,8.90 - 12.13,2,"#budget, #essentials"
U Stars Supermarket,supermarket,1.4151041,103.8399222,,Yishun Avenue 4,,,YISHUN,Yishun Avenue 4,4.32 - 6.62,3,"#budget, #essentials"
U Stars Supermarket,supermarket,1.4404745,103.806297,,Woodlands Drive 73,,,WOODLANDS,Woodlands Drive 73,7.09 - 10.14,4,"#budget, #essentials"
U Stars Supermarket,supermarket,1.3533544,103.9525615,,Tampines Street 21,,,TAMPINES,Tampines Street 21,7.98 - 10.21,1,"#budget, #essentials"
U Stars Supermarket,supermarket,1.3810408,103.7522696,,Teck Whye Lane,,,CHOA CHU KANG,Teck Whye Lane,7.25 - 12.10,1,"#budget, #essentials"
U Stars Supermarket,supermarket,1.3786288,103.9421553,,Elias Road,,,PASIR RIS,Elias Road,6.43 - 9.43,5,"#budget, #essentials"
U Stars Supermarket,supermarket,1.4366436,103.8366613,,Yishun Street 22,,,YISHUN,Yishun Street 22,9.69 - 11.79,3,"#budget, #essentials"
U Stars Supermarket,supermarket,1.3320409,103.9305111,,Bedok North Street 3,,,BEDOK,Bedok North Street 3,7.33 - 11.54,3,"#budget, #essentials"
U Stars Supermarket,supermarket,1.3148526,103.8823136,,Lorong 25 Geylang,,,GEYLANG,Lorong 25 Geylang,4.82 - 7.23,5,"#budget, #essentials"
U Stars Supermarket,supermarket,1.345878,103.9454948,,Tampines Street 11,,,TAMPINES,Tampines Street 11,6.12 - 9.43,4,"#budget, #essentials"
U Stars Supermarket,supermarket,1.3300973,103.9010705,,Ubi Avenue 1,,,GEYLANG,Ubi Avenue 1,6.86 - 10.06,3,"#budget, #essentials"
U Stars Supermarket,supermarket,1.3399945,103.7731494,,Toh Yi Drive,,,BUKIT TIMAH,Toh Yi Drive,8.35 - 12.33,1,"#budget, #essentials"
U Stars Supermarket,supermarket,1.3414333,103.6912467,,Jurong West Street 92,,,JURONG WEST,Jurong West Street 92,6.90 - 10.78,1,"#budget, #essentials"
U Stars Supermarket,supermarket,1.3532511,103.8897356,,Hougang Avenue 1,,,HOUGANG,Hougang Avenue 1,6.55 - 10.51,2,"#budget, #essentials"
Ang Mo Supermarket,supermarket,1.336438,103.8728643,,Alkaff Crescent,,,TOA PAYOH,Alkaff Crescent,4.75 - 9.36,3,"#budget, #essentials"
U Star Supermarket,supermarket,1.3492994,103.9348381,,Tampines Street 81,,,TAMPINES,Tampines Street 81,3.96 - 5.96,4,"#budget, #essentials"
Don Don Donki,supermarket,1.377213,103.9549765,,Pasir Ris Close,,,PASIR RIS,Pasir Ris Close,7.31 - 10.78,5,"#budget, #essentials"
Prime Supermarket,supermarket,1.3736137,103.8713274,,Serangoon North Avenue 3,,,SERANGOON,Serangoon North Avenue 3,7.77 - 10.52,4,"#budget, #essentials"
Prime Supermarket,supermarket,1.334275,103.8788956,,Upper Aljunied Road,,,TOA PAYOH,Upper Aljunied Road,9.42 - 13.99,2,"#budget, #essentials"
Prime Supermarket,supermarket,1.3518731,103.8796115,,Hougang Street 11,,,HOUGANG,Hougang Street 11,8.02 - 12.57,5,"#budget, #essentials"
Prime Supermarket,supermarket,1.4288283,103.8500035,,Yishun Avenue 6,,,YISHUN,Yishun Avenue 6,8.83 - 12.12,3,"#budget, #essentials"
Prime Supermarket,supermarket,1.3540084,103.8909356,,Hougang Avenue 1,,,HOUGANG,Hougang Avenue 1,5.24 - 7.70,2,"#budget, #essentials"
Prime Supermarket,supermarket,1.3485344,103.9339014,,Tampines Street 81,,,TAMPINES,Tampines Street 81,8.11 - 11.24,3,"#budget, #essentials"
Prime Supermarket,supermarket,1.3647233,103.9373235,,Tampines North Drive 1,,,TAMPINES,Tampines North Drive 1,5.31 - 10.28,1,"#budget, #essentials"
NTUC Fairprice,supermarket,1.3561864,103.7407008,NTUC Fairprice,Bukit Batok Street 41,,,BUKIT BATOK,Bukit Batok Street 41,8.13 - 10.32,2,"#budget, #essentials"
NTUC Fairprice,supermarket,1.3686099,103.856046,NTUC Fairprice,Ang Mo Kio Avenue 10,,,ANG MO KIO,Ang Mo Kio Avenue 10,6.25 - 8.58,5,"#budget, #essentials"
NTUC FairPrice,supermarket,1.345386,103.9454495,NTUC Fairprice,Tampines Street 11,,,TAMPINES,Tampines Street 11,8.13 - 10.29,2,"#budget, #essentials"
NTUC FairPrice,supermarket,1.3483943,103.9481354,NTUC Fairprice,Tampines Street 11,,,TAMPINES,Tampines Street 11,8.44 - 12.03,2,"#budget, #essentials"
Bizgram Asia Pte Ltd,supermarket,1.3032323,103.8531612,"Seagate, Samsung, WD, TP-Link, Cisco, Lenovo, HP, Aruba, 3M, Jabra, Logitech, Corsair, Kingston, Crucial, Sandisk,. PNY, Sapphire, MSI, Asus, Gigabyte, Asrock, Klevv",Rochor Canal Road,https://www.bizgram.com,63341373,ROCHOR,Rochor Canal Road,6.59 - 10.66,2,"#budget, #essentials"
Pick & Go,supermarket,1.3407298,103.9627729,,Somapah Road,https://pickngo.com.sg/,,TAMPINES,Somapah Road,3.31 - 7.20,2,"#budget, #essentials"
UglyFood,supermarket,1.3407334,103.9626627,,Somapah Road,https://www.uglyfood.com.sg/,,TAMPINES,Somapah Road,8.23 - 12.38,3,"#budget, #essentials"
J-mart,supermarket,1.3054399,103.904823,,East Coast Road,,+65 6513 2477,MARINE PARADE,East Coast Road,8.16 - 12.87,5,"#budget, #essentials"
KL Mart,supermarket,1.3298063,103.8738978,,MacPherson Road,,,TOA PAYOH,MacPherson Road,5.64 - 8.14,1,"#budget, #essentials"
Fortune Supermarket,supermarket,1.4020081,103.9137946,,Punggol Drive,,,PUNGGOL,Punggol Drive,4.48 - 9.36,1,"#budget, #essentials"
Sheng Siong,supermarket,1.3878258,103.763142,Sheng Siong,Senja Close,,+65 6592 5767,BUKIT PANJANG,Senja Close,9.25 - 13.72,4,"#budget, #essentials"
Mei Tang,supermarket,1.3262681,103.8637132,Mei Tang,Saint Michael's Road,https://meitang.company.site/,6597728349,KALLANG,Saint Michael's Road,5.92 - 10.10,1,"#budget, #essentials"
FairPrice Senja Heights,supermarket,1.3869539,103.7616549,NTUC Fairprice,Senja Close,,,BUKIT PANJANG,Senja Close,3.23 - 7.33,4,"#budget, #essentials"
Scarlett Supermarket,supermarket,1.3338571,103.8877974,,MacPherson Road,https://www.scarlettsupermarket.com.sg/,,TOA PAYOH,MacPherson Road,8.61 - 11.89,1,"#budget, #essentials"
BNM Trading,supermarket,1.3103697,103.9018416,,Joo Chiat Road,,,GEYLANG,Joo Chiat Road,9.85 - 13.83,4,"#budget, #essentials"
NTUC FairPrice Finest,supermarket,1.3385533,103.8712185,,Bidadari Park Drive,,,TOA PAYOH,Bidadari Park Drive,4.35 - 8.79,1,"#budget, #essentials"
MCP FAIRMART 百鮮超市,supermarket,1.3328871,103.9379857,,Bedok North Avenue 4,,,BEDOK,Bedok North Avenue 4,7.46 - 11.94,3,"#budget, #essentials"
Chaung Thar Myanmar Minimart,supermarket,1.3438372,103.7367607,,Jurong East Street 24,,6586601614,JURONG EAST,Jurong East Street 24,5.19 - 8.55,3,"#budget, #essentials"
Thai Supermarket,supermarket,1.3097081,103.8643862,,Kallang Avenue,,,KALLANG,Kallang Avenue,4.50 - 8.37,1,"#budget, #essentials"
"Sing Hiong Market, Bakery & Confectionery",supermarket,1.3331217,103.8787865,,Upper Aljunied Road,,+65 6280 5537,TOA PAYOH,Upper Aljunied Road,7.63 - 11.60,4,"#budget, #essentials"
Sri Murugan Trading Pte Ltd,supermarket,1.3472178,103.7576464,,Bukit Batok East Avenue 3,,,BUKIT BATOK,Bukit Batok East Avenue 3,7.13 - 11.87,4,"#budget, #essentials"
Quan Shui Wet Market,supermarket,1.3836916,103.8280781,,Tagore Lane,https://quanshuiwetmarket.com,,ANG MO KIO,Tagore Lane,7.44 - 10.27,1,"#budget, #essentials"
Don Don Donki,supermarket,1.3596752,103.9895144,,Airport Boulevard,,6562863811,CHANGI,Airport Boulevard,7.01 - 11.29,1,"#budget, #essentials"
OVM Super Store,supermarket,1.3228067,103.8522385,,Balestier Road,,,NOVENA,Balestier Road,4.79 - 7.69,2,"#budget, #essentials"
NTUC Fairprice,supermarket,1.3251781,103.8510683,NTUC Fairprice,Balestier Road,,,NOVENA,Balestier Road,6.84 - 10.48,3,"#budget, #essentials"
Shine Korea,supermarket,1.2964128,103.8538356,Shine Korea,Bain Street,https://www.shinekorea.com.sg/branches,+65 6336 1496,DOWNTOWN CORE,Bain Street,5.67 - 9.26,4,"#budget, #essentials"
NTUC FairPrice Finest Clarke Quay,supermarket,1.2910606,103.8454824,,River Valley Road,https://www.fairprice.com.sg/,+65 62288040,SINGAPORE RIVER,River Valley Road,5.56 - 8.42,3,"#budget, #essentials"
Little Farms,supermarket,1.3068977,103.9044849,,Joo Chiat Road,https://littlefarms.com/store-locator/katong/,+65 6241 2487,MARINE PARADE,Joo Chiat Road,7.37 - 9.89,5,"#budget, #essentials"
CS Fresh,supermarket,1.3172829,103.8361658,,Dunearn Road,https://coldstorage.com.sg/,+65 68115006,NOVENA,Dunearn Road,3.43 - 5.67,5,"#budget, #essentials"
Cold Storage,supermarket,1.3734003,103.9483566,Cold Storage,Pasir Ris Central,https://coldstorage.com.sg/,,PASIR RIS,Pasir Ris Central,5.76 - 8.93,5,"#budget, #essentials"
Scarlett Supermarket,supermarket,1.3735783,103.9485573,,Pasir Ris Central,https://www.scarlettsupermarket.com.sg/,,PASIR RIS,Pasir Ris Central,5.26 - 9.04,2,"#budget, #essentials"
Giant Supermarket,supermarket,1.3577052,103.7341028,,Plantation Crescent,https://giant.sg/store/tengah-plantation-plaza,,TENGAH,Plantation Crescent,3.71 - 6.90,2,"#budget, #essentials"
Norman,supermarket,1.401599,103.8925761,,Sumang Lane,,+65 88 398 670,PUNGGOL,Sumang Lane,4.32 - 7.06,5,"#budget, #essentials"
Shine Korea,supermarket,1.3010984,103.8552433,Shine Korea,Rochor Road,,+65 6337 8425,ROCHOR,Rochor Road,4.10 - 8.97,3,"#budget, #essentials"
Sheng Siong,supermarket,1.3221996,103.7637347,Sheng Siong,Clementi Avenue 6,,,CLEMENTI,Clementi Avenue 6,4.18 - 6.70,5,"#budget, #essentials"
Scarlett 思家客,supermarket,1.2851743,103.8447256,,Chinatown Point,https://www.scarlettsupermarket.com.sg/,,OUTRAM,Chinatown Point,3.15 - 6.63,3,"#budget, #essentials"
Scarlett 思家客,supermarket,1.3918557,103.8759328,,The Seletar Mall,,,SENGKANG,The Seletar Mall,7.88 - 10.32,2,"#budget, #essentials"
Scarlett 思家客,supermarket,1.3342909,103.7427095,,Westgate,https://www.scarlettsupermarket.com.sg/,,JURONG EAST,Westgate,3.64 - 7.52,4,"#budget, #essentials"
TaoYuan 桃園,supermarket,1.4295823,103.8356806,,Northpoint City,,,YISHUN,Northpoint City,7.37 - 11.47,1,"#budget, #essentials"
NTUC FairPrice Finest,supermarket,1.3521474,103.9439445,,Century Square,,,TAMPINES,Century Square,3.09 - 5.73,2,"#budget, #essentials"
Giant Mega Tampines,supermarket,1.3721266,103.9319998,,Tampines North Drive 2,,,TAMPINES,Tampines North Drive 2,8.16 - 11.90,1,"#budget, #essentials"
Sunnychoice,supermarket,1.3593085,103.7676508,,Upper Bukit Timah Road,https://www.sunnychoice.com.sg/,+65 6892 2383,BUKIT PANJANG,Upper Bukit Timah Road,9.16 - 13.44,5,"#budget, #essentials"
Cold Storage,supermarket,1.3603085,103.7675591,,Jalan Asas,https://coldstorage.com.sg/,,BUKIT PANJANG,Jalan Asas,3.93 - 6.45,5,"#budget, #essentials"
Shipmart Pte Ltd,supermarket,1.2690936,103.8147233,,Wishart Road,,,BUKIT MERAH,Wishart Road,3.97 - 8.08,1,"#budget, #essentials"
S-Power Mini Supermarket,supermarket,1.3617131,103.8736873,,Yio Chu Kang Road,,,HOUGANG,Yio Chu Kang Road,9.76 - 14.01,2,"#budget, #essentials"
NTUC FairPrice Xtra,supermarket,1.3012205,103.9050905,,Marine Parade Road,https://www.fairprice.com.sg/,,MARINE PARADE,Marine Parade Road,3.36 - 7.32,5,"#budget, #essentials"
Cold Storage,supermarket,1.300713,103.9053675,,Marine Parade Road,,,MARINE PARADE,Marine Parade Road,3.27 - 6.41,5,"#budget, #essentials"
Shahid Mini Mart LLP,supermarket,1.3601099,103.9344762,,Tampines Street 72,,+65 626 00057,TAMPINES,Tampines Street 72,5.78 - 10.45,3,"#budget, #essentials"
Prime,supermarket,1.4111068,103.897531,Prime,Sumang Walk,,,PUNGGOL,Sumang Walk,3.04 - 7.67,1,"#budget, #essentials"
NTUC Fairprice,supermarket,1.2901076,103.8166471,NTUC Fairprice,Alexandra View,,,BUKIT MERAH,Alexandra View,9.79 - 12.06,1,"#budget, #essentials"
Prime supermarket,supermarket,1.3340029,103.8707323,,Bidadari Park Drive,,,TOA PAYOH,Bidadari Park Drive,7.57 - 10.31,4,"#budget, #essentials"
Shell Shop,convenience_store,1.3916146,103.8927199,Shell Shop,Sengkang East Road,,,SENGKANG,Sengkang East Road,4.65 - 8.98,2,"#essentials, #local"
7-Eleven,convenience_store,1.370052,103.957437,7-Eleven,Pasir Ris Dr 6,,,PASIR RIS,Pasir Ris Dr 6,6.00 - 10.60,4,"#essentials, #local"
7-Eleven,convenience_store,1.3566164,103.7523068,7-Eleven,Bukit Batok Street 52,,,BUKIT BATOK,Bukit Batok Street 52,5.01 - 7.63,5,"#essentials, #local"
7-Eleven,convenience_store,1.2891697,103.7779041,7-Eleven,Pasir Panjang Road,,,QUEENSTOWN,Pasir Panjang Road,7.73 - 10.98,1,"#essentials, #local"
Cheers,convenience_store,1.3705495,103.8281707,Cheers,Upper Thomson Road,,,ANG MO KIO,Upper Thomson Road,7.85 - 12.22,2,"#essentials, #local"
7-Eleven,convenience_store,1.3276428,103.9038308,7-Eleven,Ubi Ave 1,,,GEYLANG,Ubi Ave 1,4.83 - 7.03,5,"#essentials, #local"
7-Eleven,convenience_store,1.2969497,103.8557045,7-Eleven,Middle Road,,,DOWNTOWN CORE,Middle Road,7.15 - 10.52,5,"#essentials, #local"
7-Eleven,convenience_store,1.4403443,103.8008888,,70 Woodlands Ave 7,,,WOODLANDS,70 Woodlands Ave 7,6.82 - 11.01,3,"#essentials, #local"
Cheers,convenience_store,1.3035244,103.773937,Cheers,Create Way,,6659 6017,QUEENSTOWN,Create Way,9.63 - 14.59,4,"#essentials, #local"
7-Eleven,convenience_store,1.3098736,103.9010777,7-Eleven,Dunman Road,,,GEYLANG,Dunman Road,9.54 - 14.01,3,"#essentials, #local"
Lim's Provisions,convenience_store,1.3777984,103.8963021,,Hougang Avenue 10,,,HOUGANG,Hougang Avenue 10,7.25 - 11.63,4,"#essentials, #local"
Cheers,convenience_store,1.2769745,103.8437294,Cheers,Tras Link,,,OUTRAM,Tras Link,4.99 - 8.61,4,"#essentials, #local"
Shell Select,convenience_store,1.3999265,103.8178415,Shell Select,Sembawang Road,,,YISHUN,Sembawang Road,7.55 - 10.92,5,"#essentials, #local"
7-Eleven,convenience_store,1.3646143,103.8660598,7-Eleven,Kensington Park Road,,,SERANGOON,Kensington Park Road,7.80 - 12.24,4,"#essentials, #local"
7-Eleven,convenience_store,1.3127092,103.8807011,7-Eleven,Geylang Road,,,GEYLANG,Geylang Road,8.64 - 10.85,2,"#essentials, #local"
7-Eleven,convenience_store,1.3155119,103.883199,7-Eleven,Lorong 25A Geylang,,,GEYLANG,Lorong 25A Geylang,3.97 - 6.39,4,"#essentials, #local"
7-Eleven,convenience_store,1.3791325,103.955461,7-Eleven,Pasir Ris Close,,,PASIR RIS,Pasir Ris Close,7.86 - 12.01,2,"#essentials, #local"
7-Eleven,convenience_store,1.3118828,103.9005456,7-Eleven,Joo Chiat Road,,,GEYLANG,Joo Chiat Road,4.95 - 9.88,1,"#essentials, #local"
7-Eleven,convenience_store,1.2796702,103.8475518,7-Eleven,McCallum Street,,,OUTRAM,McCallum Street,9.01 - 11.33,4,"#essentials, #local"
7-Eleven,convenience_store,1.2821667,103.8458997,7-Eleven,Club Street,,,OUTRAM,Club Street,4.01 - 7.30,5,"#essentials, #local"
7-Eleven,convenience_store,1.2811559,103.8451247,7-Eleven,Erskine Road,,,OUTRAM,Erskine Road,4.37 - 7.75,4,"#essentials, #local"
7-Eleven,convenience_store,1.2802562,103.8414987,7-Eleven,Keong Saik Road,,,OUTRAM,Keong Saik Road,3.36 - 8.12,5,"#essentials, #local"
7-Eleven,convenience_store,1.2754212,103.8441447,7-Eleven,Gopeng St,,,DOWNTOWN CORE,Gopeng St,6.89 - 9.99,5,"#essentials, #local"
7-Eleven,convenience_store,1.2788217,103.8433906,7-Eleven,Duxton Road,https://www.7-eleven.com.sg/,,OUTRAM,Duxton Road,6.32 - 8.60,3,"#essentials, #local"
Cheers,convenience_store,1.307192,103.7903982,Cheers,North Buona Vista Road,https://www.cheers.com.sg/,+65 6779 3140,QUEENSTOWN,North Buona Vista Road,8.81 - 13.76,5,"#essentials, #local"
7-Eleven,convenience_store,1.3114743,103.7884805,,Ghim Moh Road,https://www.7-eleven.com.sg/,+65 6466 7013,QUEENSTOWN,Ghim Moh Road,7.87 - 12.19,2,"#essentials, #local"
7-Eleven,convenience_store,1.2975015,103.8005442,,Stirling Road,https://www.7-eleven.com.sg/,+65 6476 5609,QUEENSTOWN,Stirling Road,6.04 - 10.21,3,"#essentials, #local"
Cheers,convenience_store,1.2764424,103.8357617,Cheers,Kampong Bahru Road,,,BUKIT MERAH,Kampong Bahru Road,7.62 - 11.46,1,"#essentials, #local"
7-Eleven,convenience_store,1.2923388,103.8407982,7-Eleven,Mohamed Sultan Road,,,RIVER VALLEY,Mohamed Sultan Road,4.66 - 9.20,1,"#essentials, #local"
Cheers,convenience_store,1.311553,103.7949131,Cheers,Lorong Mambong,,,QUEENSTOWN,Lorong Mambong,9.31 - 14.18,3,"#essentials, #local"
7-Eleven,convenience_store,1.2750389,103.8429425,7-Eleven,Tanjong Pagar Road,,,OUTRAM,Tanjong Pagar Road,7.72 - 12.25,1,"#essentials, #local"
7-Eleven,convenience_store,1.3713906,103.8290006,7-Eleven,Jalan Leban,,,ANG MO KIO,Jalan Leban,8.41 - 11.77,5,"#essentials, #local"
Guardian,convenience_store,1.2928333,103.8532762,Guardian,CityLink Mall,https://guardian.com.sg/,+65 62388116,DOWNTOWN CORE,CityLink Mall,6.22 - 9.17,3,"#essentials, #local"
7-Eleven,convenience_store,1.339971,103.7738201,7-Eleven,Jalan Jurong Kechil,,,BUKIT TIMAH,Jalan Jurong Kechil,4.56 - 8.56,2,"#essentials, #local"
7-Eleven,convenience_store,1.3502177,103.7242131,7-Eleven,Jurong West Street 41,,,JURONG WEST,Jurong West Street 41,9.44 - 13.97,2,"#essentials, #local"
Midtown Mart,convenience_store,1.290899,103.8574196,,Raffles Boulevard,,,DOWNTOWN CORE,Raffles Boulevard,5.75 - 9.23,1,"#essentials, #local"
Cheers,convenience_store,1.3033085,103.7918559,Cheers,Biopolis Street,,,QUEENSTOWN,Biopolis Street,7.20 - 10.45,3,"#essentials, #local"
7-Eleven,convenience_store,1.3786827,103.9417737,7-Eleven,Elias Road,,,PASIR RIS,Elias Road,4.92 - 9.44,2,"#essentials, #local"
7-Eleven,convenience_store,1.3082461,103.909849,7-Eleven,East Coast Road,,,BEDOK,East Coast Road,9.04 - 12.59,4,"#essentials, #local"
Shell Select,convenience_store,1.3126508,103.9266349,Shell,Upper East Coast Road,,,BEDOK,Upper East Coast Road,7.57 - 11.22,2,"#essentials, #local"
Cheers,convenience_store,1.3109904,103.9203371,Cheers,East Coast Road,,,BEDOK,East Coast Road,8.81 - 12.62,2,"#essentials, #local"
7-Eleven,convenience_store,1.3120298,103.9224284,7-Eleven,East Coast Road,,,BEDOK,East Coast Road,6.58 - 10.50,2,"#essentials, #local"
FairPrice,convenience_store,1.3283589,103.9396233,,Bedok North Road,,,BEDOK,Bedok North Road,9.01 - 12.12,3,"#essentials, #local"
7-Eleven,convenience_store,1.3048499,103.823337,7-Eleven,Tanglin Road,https://www.7-eleven.com.sg/,+65 67332071,ORCHARD,Tanglin Road,6.48 - 9.15,2,"#essentials, #local"
7-Eleven,convenience_store,1.3076538,103.8849385,7-Eleven,Jalan Tiga,,,GEYLANG,Jalan Tiga,9.72 - 13.44,4,"#essentials, #local"
Good Price Centre,convenience_store,1.3330593,103.8788019,,Upper Ajunied Road,,+65 6280 9829,TOA PAYOH,Upper Ajunied Road,8.51 - 10.58,1,"#essentials, #local"
Cheers,convenience_store,1.3610339,103.874011,Cheers,Yio Chu Kang Road,,,HOUGANG,Yio Chu Kang Road,3.31 - 5.96,4,"#essentials, #local"
7-Eleven,convenience_store,1.3606591,103.8739181,7-Eleven,Yio Chu Kang Road,,,HOUGANG,Yio Chu Kang Road,9.84 - 13.16,5,"#essentials, #local"
7-Eleven,convenience_store,1.3147383,103.8909841,7-Eleven,Geylang Road,,,GEYLANG,Geylang Road,6.37 - 9.06,3,"#essentials, #local"
HAO mart,convenience_store,1.3128031,103.8813005,,Geylang Road,,,GEYLANG,Geylang Road,6.55 - 10.90,1,"#essentials, #local"
B&S MiniMart Private LTD,convenience_store,1.31251,103.8795631,,Geylang Road,,,GEYLANG,Geylang Road,5.78 - 10.61,1,"#essentials, #local"
7-Eleven,convenience_store,1.3121626,103.8772837,7-Eleven,Geylang Road,,,GEYLANG,Geylang Road,9.24 - 12.50,5,"#essentials, #local"
7-Eleven,convenience_store,1.3212974,103.9025998,7-Eleven,Eunos Crescent,,,GEYLANG,Eunos Crescent,9.38 - 13.62,5,"#essentials, #local"
7-Eleven,convenience_store,1.3543007,103.8788923,7-Eleven,Upper Serangoon Road,,,HOUGANG,Upper Serangoon Road,5.19 - 9.60,3,"#essentials, #local"
7-Eleven,convenience_store,1.3541471,103.8787196,7-Eleven,Upper Serangoon Road,,,HOUGANG,Upper Serangoon Road,5.71 - 10.35,3,"#essentials, #local"
Cheers,convenience_store,1.2947522,103.816423,Cheers,Tanglin Road,,,TANGLIN,Tanglin Road,3.67 - 6.03,2,"#essentials, #local"
JC Super Market,convenience_store,1.3321284,103.8831091,,MacPherson Road,,,GEYLANG,MacPherson Road,4.23 - 8.39,2,"#essentials, #local"
7-Eleven,convenience_store,1.3225036,103.8637244,7-Eleven,Serangoon Road,,,KALLANG,Serangoon Road,9.99 - 14.71,2,"#essentials, #local"
Fair Price,convenience_store,1.3624863,103.8682345,,Chaun Garden,,,SERANGOON,Chaun Garden,5.28 - 9.22,2,"#essentials, #local"
Wall's,convenience_store,1.2821571,103.8450963,,South Bridge Road,,,OUTRAM,South Bridge Road,3.78 - 7.41,3,"#essentials, #local"
Cheers,convenience_store,1.2826835,103.8456465,,South Bridge Road,,,OUTRAM,South Bridge Road,3.89 - 6.12,3,"#essentials, #local"
7-Eleven,convenience_store,1.2839565,103.8479186,7-Eleven,China Street,,,OUTRAM,China Street,6.19 - 9.10,2,"#essentials, #local"
7-Eleven,convenience_store,1.2859771,103.8491466,7-Eleven,North Canal Road,,,SINGAPORE RIVER,North Canal Road,8.89 - 11.59,4,"#essentials, #local"
,convenience_store,1.2827764,103.8487351,,Telok Ayer Street,,,OUTRAM,Telok Ayer Street,4.51 - 6.81,1,"#essentials, #local"
7-Eleven,convenience_store,1.4307556,103.8329218,,Yishun Avenue 5,,,YISHUN,Yishun Avenue 5,6.02 - 10.80,1,"#essentials, #local"
Cheers,convenience_store,1.280686,103.8501924,Cheers,Robinson Road,,,DOWNTOWN CORE,Robinson Road,4.32 - 8.09,4,"#essentials, #local"
7-Eleven,convenience_store,1.353351,103.8346521,7-Eleven,Upper Thomson Road,,,BISHAN,Upper Thomson Road,6.84 - 10.55,2,"#essentials, #local"
Shell Select,convenience_store,1.3481748,103.83831,Shell Select,Upper Thomson Road,,,BISHAN,Upper Thomson Road,6.12 - 8.65,3,"#essentials, #local"
Cheers,convenience_store,1.3579508,103.8283545,,Upper Thomson Road,,,BISHAN,Upper Thomson Road,6.65 - 11.41,1,"#essentials, #local"
I-Tec Supermart,convenience_store,1.2942554,103.8421912,,River Valley Road,,,MUSEUM,River Valley Road,9.28 - 12.65,5,"#essentials, #local"
7-Eleven,convenience_store,1.3004629,103.859304,7-Eleven,Haji Lane,,,ROCHOR,Haji Lane,9.61 - 13.93,5,"#essentials, #local"
I-Tec Supermart,convenience_store,1.3017634,103.8584284,,North Bridge Road,,,ROCHOR,North Bridge Road,6.00 - 9.61,4,"#essentials, #local"
7-Eleven,convenience_store,1.4441894,103.7901405,,Woodlands Avenue 9,,,WOODLANDS,Woodlands Avenue 9,5.51 - 8.45,1,"#essentials, #local"
Goutham Minimart,convenience_store,1.3088269,103.856316,,Syed Alwi Road,,,ROCHOR,Syed Alwi Road,6.54 - 10.96,2,"#essentials, #local"
7-Eleven,convenience_store,1.2951737,103.8294773,7-Eleven,River Valley Road,,,TANGLIN,River Valley Road,3.04 - 6.24,1,"#essentials, #local"
Shell Select,convenience_store,1.3723686,103.7634365,Shell Select,Upper Bukit Timah Road,,,BUKIT PANJANG,Upper Bukit Timah Road,9.72 - 14.56,4,"#essentials, #local"
7-Eleven,convenience_store,1.385475,103.7464877,7-Eleven,Choa Chu Kang Park Connector,,,CHOA CHU KANG,Choa Chu Kang Park Connector,9.42 - 11.85,4,"#essentials, #local"
Cheers,convenience_store,1.2844459,103.8444848,Cheers,Upper Cross Street,,,OUTRAM,Upper Cross Street,7.00 - 11.31,5,"#essentials, #local"
Cheers,convenience_store,1.2838319,103.8433875,Cheers,New Bridge Road,,,OUTRAM,New Bridge Road,7.91 - 12.83,2,"#essentials, #local"
7-Eleven,convenience_store,1.3145504,103.8572888,7-Eleven,Serangoon Road,,,KALLANG,Serangoon Road,6.40 - 10.23,5,"#essentials, #local"
Phoon Huat,convenience_store,1.3119239,103.7969327,,Jalan Merah Saga,http://www.phoonhuat.com/,,BUKIT TIMAH,Jalan Merah Saga,6.27 - 10.84,2,"#essentials, #local"
7-Eleven,convenience_store,1.2851032,103.8293522,7-Eleven,Kim Tian Road,,,BUKIT MERAH,Kim Tian Road,8.40 - 10.66,5,"#essentials, #local"
Phoon Huat,convenience_store,1.3014536,103.8523516,RedMan,Bencoolen Street,http://www.phoonhuat.com/,,ROCHOR,Bencoolen Street,7.60 - 10.57,3,"#essentials, #local"
7-Eleven,convenience_store,1.3120241,103.7600319,7-Eleven,West Coast Drive,,,CLEMENTI,West Coast Drive,4.11 - 7.99,3,"#essentials, #local"
7-Eleven,convenience_store,1.3067191,103.8291046,,Orchard Road,,,ORCHARD,Orchard Road,5.27 - 8.40,3,"#essentials, #local"
Cheers,convenience_store,1.3266749,103.8427447,Cheers,Balestier Road,,,NOVENA,Balestier Road,7.69 - 9.83,4,"#essentials, #local"
Cheers,convenience_store,1.3221871,103.8526813,Cheers,Balestier Road,,,NOVENA,Balestier Road,7.82 - 12.25,4,"#essentials, #local"
Fei Qian Minimart,convenience_store,1.3224803,103.8526399,,Balestier Road,,,NOVENA,Balestier Road,8.66 - 12.05,1,"#essentials, #local"
7-Eleven,convenience_store,1.3246754,103.8533577,7-Eleven,Kim Keat Road,,,NOVENA,Kim Keat Road,5.26 - 7.43,3,"#essentials, #local"
Annai Super Mart,convenience_store,1.3242515,103.8529848,,Kim Keat Road,,,NOVENA,Kim Keat Road,9.37 - 12.55,3,"#essentials, #local"
I-Tec Supermart,convenience_store,1.3249018,103.8504928,,Balestier Road,,,NOVENA,Balestier Road,8.59 - 11.27,3,"#essentials, #local"
Octobox,convenience_store,1.3473643,103.6807733,,Nanyang Avenue,,,WESTERN WATER CATCHMENT,Nanyang Avenue,9.41 - 12.45,2,"#essentials, #local"
7-Eleven,convenience_store,1.3540632,103.9598239,7-Eleven,Tampines Street 32,,,TAMPINES,Tampines Street 32,6.83 - 10.58,5,"#essentials, #local"
Rong Xing Mini Mart,convenience_store,1.2882371,103.8152576,,Redhill Road,,,BUKIT MERAH,Redhill Road,3.50 - 6.87,2,"#essentials, #local"
7-Eleven,convenience_store,1.4051692,103.8975981,7-Eleven,Punggol Way,,,PUNGGOL,Punggol Way,9.89 - 14.80,1,"#essentials, #local"
7-Eleven,convenience_store,1.3748828,103.8869975,7-Eleven,Hougang Street 61,,,HOUGANG,Hougang Street 61,5.84 - 10.05,2,"#essentials, #local"
7-Eleven,convenience_store,1.3754527,103.7653854,7-Eleven,Gangsa Road,,,BUKIT PANJANG,Gangsa Road,8.51 - 12.78,3,"#essentials, #local"
Lit Heng Seng Minimart,convenience_store,1.3320923,103.9139143,,Bedok Reservoir Road,,,BEDOK,Bedok Reservoir Road,4.40 - 8.81,4,"#essentials, #local"
Top Plus Supermarket,convenience_store,1.332067,103.9144393,,Bedok Reservoir Road,,,BEDOK,Bedok Reservoir Road,7.01 - 9.04,5,"#essentials, #local"
Bee Kee Hong KongThiam Sim,convenience_store,1.3328982,103.9137964,,Bedok Reservoir Road,,,BEDOK,Bedok Reservoir Road,4.05 - 7.91,2,"#essentials, #local"
Vaseegara Traders Pte Ltd,convenience_store,1.3331052,103.9144664,,Bedok Reservoir Road,,"64932799, 82287057 (mobile)",BEDOK,Bedok Reservoir Road,5.14 - 9.49,3,"#essentials, #local"
Fook Ann Siang Medicine & Trading Co.,convenience_store,1.3325325,103.9141909,,Bedok Reservoir Road,,,BEDOK,Bedok Reservoir Road,8.92 - 12.15,1,"#essentials, #local"
Chee Hoe Seng Minimart,convenience_store,1.3313109,103.9100487,,Bedok Reservoir Road,,,BEDOK,Bedok Reservoir Road,5.75 - 8.48,5,"#essentials, #local"
7-Eleven,convenience_store,1.3313502,103.9096332,7-Eleven,Bedok Reservoir Road,,,BEDOK,Bedok Reservoir Road,4.31 - 6.66,4,"#essentials, #local"
7-Eleven,convenience_store,1.3322504,103.8677915,7-Eleven,Potong Pasir Avenue 1,,,TOA PAYOH,Potong Pasir Avenue 1,9.30 - 13.55,2,"#essentials, #local"
Phoon Huat,convenience_store,1.3710725,103.8946061,,Hougang Central,http://www.phoonhuat.com/,,HOUGANG,Hougang Central,6.80 - 9.30,1,"#essentials, #local"
FairPrice,convenience_store,1.3712241,103.8563719,,Ang Mo Kio Avenue 10,,,ANG MO KIO,Ang Mo Kio Avenue 10,9.22 - 12.18,4,"#essentials, #local"
Hao Mart,convenience_store,1.2837098,103.8159294,,Bukit Merah Central,,,BUKIT MERAH,Bukit Merah Central,6.46 - 9.56,1,"#essentials, #local"
Phoon Huat,convenience_store,1.283797,103.8174877,,Jalan Bukit Merah,http://www.phoonhuat.com/,,BUKIT MERAH,Jalan Bukit Merah,9.09 - 12.31,4,"#essentials, #local"
RedMan,convenience_store,1.3068507,103.7884761,,Vista Exchange Green,http://www.phoonhuat.com/,,QUEENSTOWN,Vista Exchange Green,6.65 - 9.58,2,"#essentials, #local"
RedMan,convenience_store,1.3524681,103.8732755,,Serangoon Central,http://www.phoonhuat.com/,,SERANGOON,Serangoon Central,6.84 - 9.55,3,"#essentials, #local"
Phoon Huat,convenience_store,1.3679146,103.8514987,,Ang Mo Kio Avenue 3,http://www.phoonhuat.com/,,ANG MO KIO,Ang Mo Kio Avenue 3,3.11 - 7.04,1,"#essentials, #local"
Phoon Huat,convenience_store,1.3140344,103.7625606,,Clementi Avenue 3,http://www.phoonhuat.com/,,CLEMENTI,Clementi Avenue 3,9.36 - 13.13,5,"#essentials, #local"
Phoon Huat,convenience_store,1.4314962,103.7743811,,Woodlands Street 31,http://www.phoonhuat.com/,,WOODLANDS,Woodlands Street 31,7.25 - 9.36,2,"#essentials, #local"
Phoon Huat,convenience_store,1.3433847,103.9536533,,Simei Street 3,http://www.phoonhuat.com/,,TAMPINES,Simei Street 3,9.55 - 13.28,4,"#essentials, #local"
Phoon Huat,convenience_store,1.3165805,103.8809279,,Lorong 23 Geylang,http://www.phoonhuat.com/,,GEYLANG,Lorong 23 Geylang,8.92 - 11.00,2,"#essentials, #local"
Phoon Huat,convenience_store,1.3412499,103.846986,,Lorong 1 Toa Payoh,http://www.phoonhuat.com/,,TOA PAYOH,Lorong 1 Toa Payoh,9.48 - 12.86,1,"#essentials, #local"
7-Eleven,convenience_store,1.2985134,103.8391586,7-Eleven,Killiney Road,,,RIVER VALLEY,Killiney Road,7.55 - 11.03,4,"#essentials, #local"
7-Eleven,convenience_store,1.2772216,103.8367959,7-Eleven,Kampong Bahru Road,https://7-eleven.com.sg/,,BUKIT MERAH,Kampong Bahru Road,4.95 - 7.65,3,"#essentials, #local"
7-Eleven,convenience_store,1.3500428,103.7012145,7-Eleven,Jurong West Avenue 5,,,JURONG WEST,Jurong West Avenue 5,5.87 - 8.49,3,"#essentials, #local"
Provisions,convenience_store,1.3046448,103.8088431,,Dempsey Road,,+65 9790 7991,TANGLIN,Dempsey Road,6.79 - 10.23,1,"#essentials, #local"
7-Eleven,convenience_store,1.2788141,103.8486232,7-Eleven,Robinson Road,,+65 6891 8100,DOWNTOWN CORE,Robinson Road,8.64 - 11.27,5,"#essentials, #local"
7-Eleven,convenience_store,1.3272075,103.8466337,7-Eleven,Ah Hood Road,,,NOVENA,Ah Hood Road,7.96 - 11.66,3,"#essentials, #local"
7-Eleven,convenience_store,1.288768,103.8475049,7-Eleven,New Bridge Road,,,SINGAPORE RIVER,New Bridge Road,3.54 - 8.09,2,"#essentials, #local"
Cheers,convenience_store,1.2892261,103.8472599,Cheers,Eu Tong Sen Street,,,SINGAPORE RIVER,Eu Tong Sen Street,3.76 - 7.83,4,"#essentials, #local"
7-Eleven,convenience_store,1.2777381,103.8473906,7-Eleven,Robinson Road,,,DOWNTOWN CORE,Robinson Road,9.05 - 12.25,1,"#essentials, #local"
Scootz,convenience_store,1.2873618,103.8134788,,Lengkok Bahru,,,BUKIT MERAH,Lengkok Bahru,4.66 - 8.31,3,"#essentials, #local"
,convenience_store,1.3041405,103.7825227,,Dover Crescent,,,QUEENSTOWN,Dover Crescent,7.89 - 10.51,3,"#essentials, #local"
7-Eleven,convenience_store,1.3036665,103.849989,7-Eleven,Selegie Road,,,ROCHOR,Selegie Road,6.77 - 10.10,5,"#essentials, #local"
GG Mart,convenience_store,1.3263796,103.8486257,,Balestier Road,,,NOVENA,Balestier Road,7.83 - 10.74,2,"#essentials, #local"
7-Eleven,convenience_store,1.3043671,103.9238404,7-Eleven,East Coast Parkway,https://www.facebook.com/7Eleven.Singapore/,,BEDOK,East Coast Parkway,5.55 - 10.50,4,"#essentials, #local"
7-Eleven,convenience_store,1.3041442,103.8323083,7-Eleven,Orchard Turn,https://www.7-eleven.com.sg/,+65 65094839,ORCHARD,Orchard Turn,6.96 - 11.93,1,"#essentials, #local"
Marine Villa Express,convenience_store,1.303802,103.9124606,,Marine Crescent #01-49,,,MARINE PARADE,Marine Crescent #01-49,5.32 - 9.11,1,"#essentials, #local"
Jasons Deli,convenience_store,1.3040771,103.8316123,,Orchard Turn,,,ORCHARD,Orchard Turn,8.48 - 10.56,3,"#essentials, #local"
Cheers,convenience_store,1.3000215,103.9077224,,East Coast Parkway,http://www.cheersstore.com/,63420266,MARINE PARADE,East Coast Parkway,7.25 - 9.94,1,"#essentials, #local"
Tenaga mini mart,convenience_store,1.3323285,103.9061071,,Jalan Tenaga,,,BEDOK,Jalan Tenaga,4.47 - 8.87,5,"#essentials, #local"
7-Eleven,convenience_store,1.3458874,103.7008018,7-Eleven,Jurong West Street 75,,,JURONG WEST,Jurong West Street 75,8.41 - 12.60,4,"#essentials, #local"
Annai Marketing,convenience_store,1.3079012,103.8506453,,Race Course Road,,,ROCHOR,Race Course Road,5.46 - 8.22,1,"#essentials, #local"
H M Hussain,convenience_store,1.307321,103.7956057,,Holland Close,,,QUEENSTOWN,Holland Close,4.67 - 7.98,4,"#essentials, #local"
7-Eleven,convenience_store,1.3989584,103.8181031,7-Eleven,Upper Thomson Road,,,YISHUN,Upper Thomson Road,7.54 - 12.48,5,"#essentials, #local"
,convenience_store,1.3372937,103.7539333,,Toh Guan Road East,,,CLEMENTI,Toh Guan Road East,9.54 - 13.66,4,"#essentials, #local"
Star Mart,convenience_store,1.3495058,103.9282581,Star Mart,Tampines Avenue 8,,,TAMPINES,Tampines Avenue 8,5.01 - 9.86,5,"#essentials, #local"
Shell Select,convenience_store,1.2867909,103.8344284,Shell Select,Outram Road,,,BUKIT MERAH,Outram Road,6.26 - 10.99,3,"#essentials, #local"
Choices,convenience_store,1.2884085,103.8379609,,Havelock Road,,,SINGAPORE RIVER,Havelock Road,5.52 - 9.96,3,"#essentials, #local"
7-Eleven,convenience_store,1.3189362,103.8935142,7-Eleven,Eunos Road 8,https://www.7-eleven.com.sg/,,GEYLANG,Eunos Road 8,6.57 - 9.34,3,"#essentials, #local"
Cheers,convenience_store,1.3182708,103.8932833,Cheers,Paya Lebar Road,https://cheers.com.sg/,,GEYLANG,Paya Lebar Road,4.07 - 6.71,3,"#essentials, #local"
7-Eleven,convenience_store,1.3115447,103.7959073,7-Eleven,Holland Avenue,https://www.7-eleven.com.sg/,,QUEENSTOWN,Holland Avenue,7.49 - 11.33,1,"#essentials, #local"
7-Eleven,convenience_store,1.2970663,103.8525303,7-Eleven,Victoria Street,,,ROCHOR,Victoria Street,4.06 - 7.44,2,"#essentials, #local"
retail shop,convenience_store,1.2874053,103.8312169,,Jalan Bukit Ho Swee,,,BUKIT MERAH,Jalan Bukit Ho Swee,8.66 - 13.10,5,"#essentials, #local"
7-Eleven,convenience_store,1.3736652,103.8551237,7-Eleven,Ang Mo Kio Avenue 10,,,ANG MO KIO,Ang Mo Kio Avenue 10,9.46 - 13.14,4,"#essentials, #local"
ALFA H MART,convenience_store,1.2755248,103.8412528,,Cantonment Road,,6565091845,OUTRAM,Cantonment Road,9.90 - 12.73,5,"#essentials, #local"
Mini Mart SM Tresha,convenience_store,1.3267649,103.843634,,Jalan Dusun,,,NOVENA,Jalan Dusun,8.41 - 13.36,5,"#essentials, #local"
Kalam Mart,convenience_store,1.3128594,103.8563509,,Serangoon Road,,,KALLANG,Serangoon Road,4.12 - 7.54,4,"#essentials, #local"
7-Eleven,convenience_store,1.3163433,103.8355655,7-Eleven,Bukit Timah Road,,,NEWTON,Bukit Timah Road,6.33 - 10.76,4,"#essentials, #local"
7-Eleven,convenience_store,1.3011625,103.8597143,7-Eleven,Baghdad Street,,,ROCHOR,Baghdad Street,3.47 - 7.39,3,"#essentials, #local"
uMart,convenience_store,1.3208984,103.8527411,,Balestier Road,,,NOVENA,Balestier Road,9.63 - 12.04,5,"#essentials, #local"
Everyday Mart,convenience_store,1.3269207,103.8458629,,Balestier Road,,,NOVENA,Balestier Road,6.25 - 8.68,4,"#essentials, #local"
Come N Grab,convenience_store,1.322327,103.8530016,,Balestier Road,,,NOVENA,Balestier Road,4.86 - 7.89,2,"#essentials, #local"
Joo Guan Hin Minimart,convenience_store,1.3394161,103.7449892,,Toh Guan Road,,+65 65651082,JURONG EAST,Toh Guan Road,6.18 - 10.44,1,"#essentials, #local"
Star Mart,convenience_store,1.3090877,103.9108134,,East Coast Road,,,BEDOK,East Coast Road,8.49 - 12.37,1,"#essentials, #local"
7-Eleven,convenience_store,1.3087349,103.9117256,,East Coast Road,,,BEDOK,East Coast Road,6.79 - 10.25,5,"#essentials, #local"
7-Eleven,convenience_store,1.2878028,103.8471937,7-Eleven,Hongkong Street,,,SINGAPORE RIVER,Hongkong Street,5.15 - 7.61,1,"#essentials, #local"
Heritage Fresh,convenience_store,1.3054063,103.9039466,,East Coast Road,,,MARINE PARADE,East Coast Road,5.64 - 8.48,3,"#essentials, #local"
7-Eleven,convenience_store,1.3672033,103.9645786,7-Eleven,"Blk 258, Pasir Ris Street 21, #01-08 Loyang Point",,,PASIR RIS,Blk 258,6.97 - 10.49,1,"#essentials, #local"
FairPrice Xpress,convenience_store,1.430858,103.7842892,NTUC FairPrice,Woodlands Avenue 1,https://www.fairprice.com.sg/our-retail-formats/,,WOODLANDS,Woodlands Avenue 1,8.87 - 12.48,5,"#essentials, #local"
7-Eleven,convenience_store,1.2795626,103.8508396,7-Eleven,Shenton Way,,+65 6509 6553,DOWNTOWN CORE,Shenton Way,5.47 - 10.35,3,"#essentials, #local"
Chip Aik Liquor Co.,convenience_store,1.3068953,103.8000189,,Commonwealth Crescent,,+65 64728461,QUEENSTOWN,Commonwealth Crescent,8.80 - 11.50,2,"#essentials, #local"
,convenience_store,1.2921326,103.8505754,,North Bridge Road,,,DOWNTOWN CORE,North Bridge Road,8.44 - 13.37,5,"#essentials, #local"
Cheers,convenience_store,1.2944986,103.8503108,Cheers,Stamford Road,,,MUSEUM,Stamford Road,9.38 - 12.09,4,"#essentials, #local"
7-Eleven,convenience_store,1.329003,103.8697216,7-Eleven,Tai Thong Crescent,https://www.7-eleven.com.sg/,+65 6891 8100,TOA PAYOH,Tai Thong Crescent,5.20 - 8.37,3,"#essentials, #local"
7-Eleven,convenience_store,1.2924056,103.8425678,7-Eleven,Clemenceau Avenue,,+65 6891 8100,SINGAPORE RIVER,Clemenceau Avenue,7.72 - 11.67,1,"#essentials, #local"
Shirley Fruits Stall,convenience_store,1.3248119,103.8422527,,Thomson Road,,,NOVENA,Thomson Road,9.64 - 11.93,1,"#essentials, #local"
Lion View Mini-mart,convenience_store,1.3282275,103.8515688,,Jalan Rajah,,,NOVENA,Jalan Rajah,8.55 - 12.49,5,"#essentials, #local"
HAO Mart,convenience_store,1.313437,103.8769362,,Lorong 11 Geylang,,,GEYLANG,Lorong 11 Geylang,7.68 - 11.21,2,"#essentials, #local"
7-Eleven,convenience_store,1.3065145,103.8561673,7-Eleven,Jalan Besar,,,ROCHOR,Jalan Besar,6.04 - 10.93,5,"#essentials, #local"
Aruna Minimart,convenience_store,1.3057989,103.85756,,Jalan Besar,,,ROCHOR,Jalan Besar,9.09 - 12.37,3,"#essentials, #local"
T&T,convenience_store,1.3166161,103.8577924,,Tessensohn Road,,,KALLANG,Tessensohn Road,4.95 - 9.91,5,"#essentials, #local"
No. 1,convenience_store,1.3754102,103.7688959,,Petir Road,,,BUKIT PANJANG,Petir Road,4.57 - 9.32,3,"#essentials, #local"
7-Eleven,convenience_store,1.3724442,103.9492106,7-Eleven,Pasir Ris Central,,,PASIR RIS,Pasir Ris Central,8.31 - 11.18,4,"#essentials, #local"
7-Eleven,convenience_store,1.3722569,103.9496268,7-Eleven,Pasir Ris Central Street 3,https://www.7-eleven.com.sg/,,PASIR RIS,Pasir Ris Central Street 3,7.56 - 11.14,5,"#essentials, #local"
Cheers,convenience_store,1.3735701,103.9481601,Cheers,Pasir Ris Central,https://cheers.com.sg/,,PASIR RIS,Pasir Ris Central,5.43 - 9.89,4,"#essentials, #local"
7-Eleven,convenience_store,1.3552006,103.9867896,7-Eleven,Airport Boulevard,,,CHANGI,Airport Boulevard,8.71 - 13.53,5,"#essentials, #local"
Hu Cheng Long,convenience_store,1.281739,103.8443228,,Sago Street,,,OUTRAM,Sago Street,8.56 - 13.26,1,"#essentials, #local"
7-Eleven,convenience_store,1.3589238,103.7356947,7-Eleven,Tengah Drive,https://www.7-eleven.com.sg/,,TENGAH,Tengah Drive,6.00 - 8.17,5,"#essentials, #local"
New Castle Kiosk,convenience_store,1.3495469,103.9527154,,Tampines Street 22,,,TAMPINES,Tampines Street 22,5.69 - 8.61,3,"#essentials, #local"
Starhub,convenience_store,1.3087437,103.8553048,,Rowell Road,,,ROCHOR,Rowell Road,7.25 - 10.67,1,"#essentials, #local"
7-Eleven,convenience_store,1.347772,103.952088,7-Eleven,Tampines Street 22,,,TAMPINES,Tampines Street 22,6.55 - 8.95,3,"#essentials, #local"
iEcon,convenience_store,1.3477101,103.9517138,,Tampines Street 22,,,TAMPINES,Tampines Street 22,8.58 - 11.86,1,"#essentials, #local"
7-Eleven,convenience_store,1.2991636,103.8576264,7-Eleven,Fraser Street,,,DOWNTOWN CORE,Fraser Street,9.38 - 13.69,1,"#essentials, #local"
7-Eleven,convenience_store,1.3528055,103.954468,7-Eleven,Tampines Street 23,,+65 68918100,TAMPINES,Tampines Street 23,8.63 - 11.36,3,"#essentials, #local"
7-Eleven,convenience_store,1.3536164,103.9525961,7-Eleven,Tampines Street 21,,+65 68918110,TAMPINES,Tampines Street 21,4.98 - 9.07,4,"#essentials, #local"
7-Eleven,convenience_store,1.3537857,103.9417314,7-Eleven,Tampines Central 6,,6891 8100,TAMPINES,Tampines Central 6,5.40 - 9.50,2,"#essentials, #local"
Shell,convenience_store,1.3491978,103.9477306,Shell,Tampines Avenue 2,,,TAMPINES,Tampines Avenue 2,7.33 - 11.04,5,"#essentials, #local"
Econ,convenience_store,1.3878139,103.8629345,,Begonia Road,,,SERANGOON,Begonia Road,4.78 - 7.66,2,"#essentials, #local"
Esso,convenience_store,1.3817193,103.8765182,Esso,Yio Chu Kang Road,,,SERANGOON,Yio Chu Kang Road,6.57 - 10.60,5,"#essentials, #local"
Shell,convenience_store,1.3411229,103.848861,Shell,Lorong 1 Toa Payoh,,,TOA PAYOH,Lorong 1 Toa Payoh,4.93 - 9.02,3,"#essentials, #local"
Leong Wah Kee Mini Market,convenience_store,1.2840873,103.8326776,,Seng Poh Lane,,,BUKIT MERAH,Seng Poh Lane,9.99 - 14.37,2,"#essentials, #local"
Shell Select,convenience_store,1.3241676,103.8422303,Shell Select,Thomson Road,,,NOVENA,Thomson Road,5.63 - 9.81,2,"#essentials, #local"
Star Mart,convenience_store,1.2904524,103.8067007,Star Mart,Alexandra Road,,,QUEENSTOWN,Alexandra Road,4.77 - 9.48,2,"#essentials, #local"
Fair Price Express,convenience_store,1.345252,103.7732635,,Upper Bukit Timah Road,,,BUKIT TIMAH,Upper Bukit Timah Road,8.76 - 12.33,1,"#essentials, #local"
Cheers,convenience_store,1.3111659,103.8836185,Cheers,Lorong 24 Geylang,,,GEYLANG,Lorong 24 Geylang,3.09 - 6.28,2,"#essentials, #local"
Shell Select,convenience_store,1.3106031,103.8840278,Shell Select,Guillemard Road,,,GEYLANG,Guillemard Road,8.33 - 11.11,4,"#essentials, #local"
Cheers,convenience_store,1.3112913,103.894489,Cheers,Tanjong Katong Road,,,GEYLANG,Tanjong Katong Road,3.43 - 5.68,5,"#essentials, #local"
,convenience_store,1.3352263,103.786884,,Binjai Park,,,BUKIT TIMAH,Binjai Park,7.12 - 10.42,5,"#essentials, #local"
FairPrice,convenience_store,1.3221542,103.9326025,,Bedok South Avenue 1,,,BEDOK,Bedok South Avenue 1,5.73 - 9.22,5,"#essentials, #local"
Esso,convenience_store,1.3748916,103.9405972,,Pasir Ris Drive 1,,,PASIR RIS,Pasir Ris Drive 1,9.86 - 12.86,1,"#essentials, #local"
Shell Select,convenience_store,1.3656261,103.9673464,Shell Select,Loyang Avenue,,,PASIR RIS,Loyang Avenue,8.81 - 11.69,2,"#essentials, #local"
7-Eleven,convenience_store,1.3308786,103.9475035,7-Eleven,Bedok Road,,,BEDOK,Bedok Road,7.39 - 11.53,4,"#essentials, #local"
Cheers,convenience_store,1.3322769,103.8790643,Cheers,Upper Ajunied Road,https://cheers.com.sg/,,TOA PAYOH,Upper Ajunied Road,9.52 - 11.87,2,"#essentials, #local"
Cheers,convenience_store,1.3243853,103.8806517,Cheers,Ajunied Road,,,GEYLANG,Ajunied Road,3.94 - 7.50,2,"#essentials, #local"
Choices,convenience_store,1.3185402,103.9086382,,Changi Road,,,BEDOK,Changi Road,4.28 - 9.10,4,"#essentials, #local"
Shell Select,convenience_store,1.3121508,103.8755255,Shell Select,Geylang Road,,,GEYLANG,Geylang Road,9.43 - 14.37,3,"#essentials, #local"
,convenience_store,1.3161633,103.9002212,,Changi Road,,,GEYLANG,Changi Road,5.44 - 7.87,1,"#essentials, #local"
Cheers,convenience_store,1.3142561,103.8892532,Cheers,Geylang Road,,,GEYLANG,Geylang Road,8.75 - 11.85,3,"#essentials, #local"
7-Eleven,convenience_store,1.321735,103.8918101,7-Eleven,Paya Lebar Road,,,GEYLANG,Paya Lebar Road,5.79 - 9.24,5,"#essentials, #local"
Shell Select,convenience_store,1.4044422,103.9065835,Shell Select,Punggol Road,,,PUNGGOL,Punggol Road,4.54 - 9.50,4,"#essentials, #local"
NTUC FairPrice Xpress,convenience_store,1.3025899,103.884173,,Mounbatten Road,,,KALLANG,Mounbatten Road,8.84 - 11.56,3,"#essentials, #local"
,convenience_store,1.3075179,103.8957446,,Tanjong Katong Road,,,MARINE PARADE,Tanjong Katong Road,8.67 - 11.44,2,"#essentials, #local"
Cheers,convenience_store,1.3588924,103.8841675,Cheers,Upper Serangoon Road,,,HOUGANG,Upper Serangoon Road,4.11 - 8.95,5,"#essentials, #local"
,convenience_store,1.4294895,103.830025,,Yishun Ring Road,,,YISHUN,Yishun Ring Road,7.11 - 10.55,5,"#essentials, #local"
Shell Select,convenience_store,1.3311926,103.8777303,Shell Select,MacPherson Road,,,TOA PAYOH,MacPherson Road,5.93 - 8.07,3,"#essentials, #local"
FairPrice Xpress,convenience_store,1.3285787,103.8719476,,MacPherson Road,,,GEYLANG,MacPherson Road,3.48 - 6.98,4,"#essentials, #local"
,convenience_store,1.4172882,103.837926,,Yishun Ring Road,,,YISHUN,Yishun Ring Road,8.44 - 13.25,1,"#essentials, #local"
Mini Market Non-Stop,convenience_store,1.280134,103.7856979,,Pasir Panjang Road,,,QUEENSTOWN,Pasir Panjang Road,6.14 - 8.77,3,"#essentials, #local"
7-Eleven,convenience_store,1.3837504,103.877076,7-Eleven,Yio Chu Kang Road,,,HOUGANG,Yio Chu Kang Road,3.90 - 8.54,3,"#essentials, #local"
Cheers,convenience_store,1.3818379,103.8765412,Cheers,Yio Chu Kang Road,,,SERANGOON,Yio Chu Kang Road,8.70 - 11.45,2,"#essentials, #local"
7-Eleven,convenience_store,1.3109788,103.8944933,7-Eleven,Tanjong Katong Road,,,GEYLANG,Tanjong Katong Road,5.39 - 7.97,5,"#essentials, #local"
Shell Select,convenience_store,1.3188665,103.8496109,Shell Select,Moulmein Road,,,NOVENA,Moulmein Road,6.27 - 8.97,1,"#essentials, #local"
Cheers,convenience_store,1.4342421,103.7619361,,Woodlands Road,,,SUNGEI KADUT,Woodlands Road,4.62 - 9.54,2,"#essentials, #local"
,convenience_store,1.3363261,103.7840901,,Dunearn Road,,,BUKIT TIMAH,Dunearn Road,9.48 - 13.63,4,"#essentials, #local"
FairPrice Xpress,convenience_store,1.2925794,103.8255693,,Delta Road,,,TANGLIN,Delta Road,6.00 - 8.07,4,"#essentials, #local"
Shell Select,convenience_store,1.338536,103.7767009,Shell,Upper Bukit Timah Road,,,BUKIT TIMAH,Upper Bukit Timah Road,4.06 - 6.43,3,"#essentials, #local"
Cheers,convenience_store,1.3399457,103.7746372,Cheers,Jalan Jurong Kechil,,,BUKIT TIMAH,Jalan Jurong Kechil,7.82 - 12.64,3,"#essentials, #local"
Cheers,convenience_store,1.3951644,103.7472654,,Choa Chu Kang Drive,,,CHOA CHU KANG,Choa Chu Kang Drive,3.31 - 6.31,4,"#essentials, #local"
Shell Select,convenience_store,1.4112469,103.7565901,Shell Select,Mandai Road,,,SUNGEI KADUT,Mandai Road,8.45 - 13.02,3,"#essentials, #local"
Star Mart,convenience_store,1.3267714,103.8451259,Star Mart,Balestier Road,,+65 6255 2873,NOVENA,Balestier Road,3.26 - 8.06,3,"#essentials, #local"
Choices,convenience_store,1.3266414,103.8481464,,Balestier Road,,+65 6251 2206,NOVENA,Balestier Road,6.92 - 10.95,5,"#essentials, #local"
Cheers,convenience_store,1.3131222,103.6875443,,Pioneer Road,,,BOON LAY,Pioneer Road,5.53 - 8.91,3,"#essentials, #local"
Cheers,convenience_store,1.3097111,103.7548807,,Jalan Buroh,,,CLEMENTI,Jalan Buroh,9.75 - 12.03,2,"#essentials, #local"
Fair Price,convenience_store,1.3080493,103.7610298,,West Coast Road,,,CLEMENTI,West Coast Road,6.51 - 9.06,1,"#essentials, #local"
Choices,convenience_store,1.372987,103.8289697,,Upper Thomson Road,,,ANG MO KIO,Upper Thomson Road,7.50 - 11.76,2,"#essentials, #local"
Cheers,convenience_store,1.3125011,103.796092,Cheers,Holland Road,,,BUKIT TIMAH,Holland Road,6.50 - 9.67,5,"#essentials, #local"
,convenience_store,1.317691,103.7855057,,Holland Road,,,BUKIT TIMAH,Holland Road,4.59 - 8.67,1,"#essentials, #local"
Sinopec Woodlands,convenience_store,1.4326732,103.7986172,,Woodlands Avenue 5,,,WOODLANDS,Woodlands Avenue 5,7.34 - 11.45,1,"#essentials, #local"
7-Eleven,convenience_store,1.2774703,103.7897628,7-Eleven,Pasir Panjang Road,,,QUEENSTOWN,Pasir Panjang Road,5.71 - 10.56,1,"#essentials, #local"
7-Eleven,convenience_store,1.4184154,103.8471339,7-Eleven,Miltonia Close,,,YISHUN,Miltonia Close,7.83 - 12.50,3,"#essentials, #local"
EZ Mart,convenience_store,1.3201259,103.7536362,,West Coast Vale,,+65 9145 2459,CLEMENTI,West Coast Vale,8.94 - 13.72,3,"#essentials, #local"
Esso Choa Chu Kang Way,convenience_store,1.3775285,103.7501792,Esso,Choa Chu Kang Way,,,CHOA CHU KANG,Choa Chu Kang Way,3.52 - 7.13,5,"#essentials, #local"
The Star Vista,shopping_mall,1.3080015,103.7883825,,Vista Exchange Green,,,QUEENSTOWN,Vista Exchange Green,26.75 - 32.33,4,"#bonding, #lifestyle, #shopping"
Katong V,shopping_mall,1.3031334,103.9032312,,Marine Parade Road,,,MARINE PARADE,Marine Parade Road,12.99 - 21.58,2,"#bonding, #family, #lifestyle, #shopping"
The Poiz Centre,shopping_mall,1.331436,103.8685709,,Upper Serangoon Road,https://thepoizcentre.com.sg/,,TOA PAYOH,Upper Serangoon Road,20.68 - 29.96,4,"#bonding, #family, #lifestyle, #shopping"
Clarke Quay Central,shopping_mall,1.2889993,103.8461796,,Eu Tong Sen St,https://www.fareastmalls.com.sg/clarke-quay-central,+65 6532 9922,SINGAPORE RIVER,Eu Tong Sen St,16.77 - 23.70,3,"#bonding, #family, #lifestyle, #shopping"
Changi Airport Terminal 1,shopping_mall,1.3627078,103.9910807,,Airport Boulevard,,,CHANGI,Airport Boulevard,13.66 - 20.29,4,"#bonding, #lifestyle, #luxury, #shopping"
Sim Lim Square,shopping_mall,1.3030332,103.8530255,,Rochor Canal Road,,,ROCHOR,Rochor Canal Road,23.13 - 31.05,3,"#bonding, #lifestyle, #luxury, #shopping"
Broadway Plaza,shopping_mall,1.3719352,103.8459597,,Ang Mo Kio Avenue 6,,,ANG MO KIO,Ang Mo Kio Avenue 6,25.66 - 33.58,3,"#family, #lifestyle, #shopping"
Compass One,shopping_mall,1.392017,103.8949564,,Sengkang Square,https://compassone.sg/,+65 6819 0733,SENGKANG,Sengkang Square,20.98 - 29.41,1,"#lifestyle, #shopping"
Rivervale Plaza,shopping_mall,1.3853329,103.9019719,,Rivervale Drive,,,SENGKANG,Rivervale Drive,26.98 - 35.27,5,"#bonding, #lifestyle, #shopping"
Rivervale Mall,shopping_mall,1.3922311,103.9044753,,Rivervale Crescent,,,SENGKANG,Rivervale Crescent,28.48 - 33.78,1,"#lifestyle, #shopping"
Hougang Mall,shopping_mall,1.3724413,103.8937329,,Hougang Avenue 10,https://www.hougangmall.com.sg/,+65 6487 4155,HOUGANG,Hougang Avenue 10,14.69 - 24.43,1,"#bonding, #family, #lifestyle, #luxury, #shopping"
Heartland Mall,shopping_mall,1.3594964,103.8852025,,Hougang Street 21,,,HOUGANG,Hougang Street 21,19.19 - 26.84,1,"#bonding, #family, #lifestyle, #shopping"
IMM,shopping_mall,1.3347654,103.7466237,,Jurong East Street 21,http://www.imm.sg/,,JURONG EAST,Jurong East Street 21,17.88 - 25.28,4,"#bonding, #lifestyle, #shopping"
White Sands,shopping_mall,1.3724456,103.9497597,,Pasir Ris Central Street 3,https://www.whitesands.com.sg/,+65 6585 0606,PASIR RIS,Pasir Ris Central Street 3,21.01 - 26.95,3,"#bonding, #family, #lifestyle, #shopping"
Jubilee Square,shopping_mall,1.3717801,103.8477747,,Ang Mo Kio Avenue 8,,,ANG MO KIO,Ang Mo Kio Avenue 8,16.80 - 23.63,5,"#lifestyle, #luxury, #shopping"
Raffles City Shopping Centre,shopping_mall,1.2938989,103.8533513,,North Bridge Road,http://www.rafflescity.com.sg/,+65 6318 0238,DOWNTOWN CORE,North Bridge Road,12.87 - 20.50,1,"#bonding, #lifestyle, #shopping"
Shaw House,shopping_mall,1.3058286,103.8315296,,Orchard Road,,,ORCHARD,Orchard Road,17.30 - 25.83,5,"#lifestyle, #shopping"
Orchard Central,shopping_mall,1.3006418,103.8398031,,Orchard Road,http://www.orchardcentral.com.sg/,+65 6238 1051,ORCHARD,Orchard Road,24.89 - 32.04,1,"#lifestyle, #shopping"
Palais Renaissance,shopping_mall,1.3067203,103.8296522,,Orchard Road,,,ORCHARD,Orchard Road,26.44 - 34.66,2,"#bonding, #family, #lifestyle, #shopping"
Orchard Towers,shopping_mall,1.3069608,103.82921,,Orchard Road,,,ORCHARD,Orchard Road,28.65 - 38.22,1,"#bonding, #family, #lifestyle, #shopping"
Anchorpoint,shopping_mall,1.2886901,103.8050249,,Alexandra Road,,,QUEENSTOWN,Alexandra Road,22.99 - 30.59,4,"#bonding, #lifestyle, #shopping"
Cathay Cineleisure Orchard,shopping_mall,1.3014619,103.8364924,,Grange Road,,,ORCHARD,Grange Road,23.26 - 29.44,2,"#bonding, #family, #lifestyle, #shopping"
100AM,shopping_mall,1.274904,103.8436136,,Tras Street,https://www.100am.com.sg/,,DOWNTOWN CORE,Tras Street,27.51 - 37.04,1,"#family, #lifestyle, #shopping"
Parkway Parade,shopping_mall,1.3013803,103.9052851,,Marine Parade Road,https://www.parkwayparade.com.sg/,,MARINE PARADE,Marine Parade Road,17.58 - 24.16,5,"#bonding, #family, #lifestyle, #shopping"
i12 Katong,shopping_mall,1.3051692,103.9050088,,East Coast Road,,,MARINE PARADE,East Coast Road,11.18 - 18.08,2,"#bonding, #family, #lifestyle, #luxury, #shopping"
Katong Plaza,shopping_mall,1.3042065,103.9038703,,Brooke Road,,,MARINE PARADE,Brooke Road,25.78 - 34.83,2,"#family, #lifestyle, #shopping"
Katong Shopping Centre,shopping_mall,1.3038781,103.9011475,,Mountbatten Road,,,MARINE PARADE,Mountbatten Road,18.82 - 28.30,1,"#bonding, #family, #lifestyle, #shopping"
Odeon Katong Shopping Complex,shopping_mall,1.3046858,103.901932,,Mountbatten Road,,,MARINE PARADE,Mountbatten Road,18.65 - 26.04,2,"#lifestyle, #shopping"
Bras Basah Complex,shopping_mall,1.2968252,103.8536294,,Bain Street,,,DOWNTOWN CORE,Bain Street,21.36 - 30.60,5,"#bonding, #lifestyle, #shopping"
Roxy Square,shopping_mall,1.3033499,103.9046089,,East Coast Road,,,MARINE PARADE,East Coast Road,19.18 - 27.96,2,"#lifestyle, #shopping"
Orchard Plaza,shopping_mall,1.3012613,103.841131,,Orchard Road,,,ORCHARD,Orchard Road,29.67 - 38.51,5,"#bonding, #lifestyle, #shopping"
The Centrepoint,shopping_mall,1.3018969,103.8398119,,Orchard Road,https://www.thecentrepoint.com.sg/,+65 6737 9000,ORCHARD,Orchard Road,11.00 - 18.33,1,"#family, #lifestyle, #shopping"
Ngee Ann City,shopping_mall,1.3026133,103.8347141,,Orchard Rd,https://www.ngeeanncity.com.sg/,,ORCHARD,Orchard Rd,21.31 - 27.56,2,"#lifestyle, #shopping"
Pacific Plaza,shopping_mall,1.3065597,103.8321236,,Scotts Road,,,ORCHARD,Scotts Road,14.11 - 22.87,3,"#lifestyle, #luxury, #shopping"
Parklane Shopping Mall,shopping_mall,1.3006629,103.849441,,Selegie Road,https://www.parklaneshoppingmall.com/,,ROCHOR,Selegie Road,23.44 - 31.39,5,"#lifestyle, #shopping"
GR.ID,shopping_mall,1.3001326,103.8493281,,Selegie Road,,6563394608,ROCHOR,Selegie Road,10.73 - 16.47,2,"#bonding, #family, #lifestyle, #shopping"
Sunshine Plaza,shopping_mall,1.3003536,103.8509415,,Bencoolen Street,,,ROCHOR,Bencoolen Street,27.42 - 33.68,4,"#family, #lifestyle, #shopping"
Fortune Centre,shopping_mall,1.3003923,103.852284,,Middle Road,,,ROCHOR,Middle Road,22.44 - 31.88,3,"#bonding, #lifestyle, #luxury, #shopping"
Peninsula Plaza,shopping_mall,1.2923267,103.8508288,,North Bridge Road,,,DOWNTOWN CORE,North Bridge Road,26.77 - 36.18,2,"#lifestyle, #luxury, #shopping"
Suntec City,shopping_mall,1.2949861,103.8578759,,Temasek Boulevard,,,DOWNTOWN CORE,Temasek Boulevard,25.85 - 30.99,3,"#bonding, #family, #lifestyle, #shopping"
Tanglin Mall,shopping_mall,1.3048369,103.8238575,,Tanglin Road,,+65 68361146,ORCHARD,Tanglin Road,24.52 - 32.90,2,"#bonding, #lifestyle, #shopping"
East Point,shopping_mall,1.3427269,103.9529868,,Simei Street 6,https://eastpoint.fraserscentrepointmalls.com/index.php,,TAMPINES,Simei Street 6,20.55 - 27.66,1,"#bonding, #family, #lifestyle, #shopping"
Tanjong Katong Complex,shopping_mall,1.3163748,103.8943388,,Geylang Road,,,GEYLANG,Geylang Road,26.48 - 34.89,3,"#bonding, #family, #lifestyle, #shopping"
City Plaza,shopping_mall,1.3147731,103.8934464,,Geylang Road,,,GEYLANG,Geylang Road,18.27 - 27.74,4,"#bonding, #lifestyle, #shopping"
Tekka Centre,shopping_mall,1.3062231,103.8505301,,Buffalo Road,,,ROCHOR,Buffalo Road,16.81 - 21.85,4,"#lifestyle, #shopping"
Mustafa Centre,shopping_mall,1.3101243,103.8553164,,Syed Alwi Road,https://mustafa.com.sg,,KALLANG,Syed Alwi Road,16.96 - 23.88,5,"#bonding, #family, #lifestyle, #shopping"
OUE Downtown,shopping_mall,1.2774025,103.8486711,,Shenton Way,,,DOWNTOWN CORE,Shenton Way,24.46 - 30.90,2,"#family, #lifestyle, #shopping"
Bugis+,shopping_mall,1.2996734,103.8541655,,Victoria Street,https://www.capitaland.com/sg/malls/bugisplus/en/,+65 6557 6557,ROCHOR,Victoria Street,21.16 - 30.85,3,"#bonding, #family, #lifestyle, #shopping"
Sun Plaza,shopping_mall,1.4481927,103.8195153,,Sembawang Drive,,,SEMBAWANG,Sembawang Drive,16.64 - 23.99,5,"#family, #lifestyle, #shopping"
313@Somerset,shopping_mall,1.3010177,103.8382874,,Orchard Road,https://www.313somerset.com.sg/,+65 6496 9313,ORCHARD,Orchard Road,17.47 - 25.52,3,"#bonding, #family, #lifestyle, #shopping"
Depot Heights Shopping Centre,shopping_mall,1.2811645,103.8103282,,Depot Road,,,BUKIT MERAH,Depot Road,26.02 - 32.78,2,"#bonding, #family, #lifestyle, #shopping"
Sembawang Shopping Centre,shopping_mall,1.4418971,103.824931,,Sembawang Road,,,SEMBAWANG,Sembawang Road,19.74 - 27.92,1,"#bonding, #lifestyle, #luxury, #shopping"
Causeway Point,shopping_mall,1.4360803,103.7860055,,Woodlands Square,,,WOODLANDS,Woodlands Square,26.45 - 33.80,4,"#bonding, #family, #lifestyle, #shopping"
Simei Plaza /Blk 248,shopping_mall,1.3435043,103.9536221,,Simei Street 3,,,TAMPINES,Simei Street 3,26.56 - 33.02,5,"#lifestyle, #shopping"
Pioneer Mall,shopping_mall,1.341702,103.6971791,,Jurong West Street 61,,,JURONG WEST,Jurong West Street 61,28.88 - 36.82,5,"#bonding, #lifestyle, #luxury, #shopping"
Gek Poh Shopping Centre,shopping_mall,1.3490591,103.6977387,,Jurong West Street 75,,,JURONG WEST,Jurong West Street 75,27.87 - 35.49,2,"#bonding, #family, #lifestyle, #shopping"
City Square Mall,shopping_mall,1.3113867,103.8565834,,Kitchener Road,https://www.citysquaremall.com.sg/,+65 6595 6595,KALLANG,Kitchener Road,16.93 - 22.46,1,"#family, #lifestyle, #shopping"
The Star Vista,shopping_mall,1.306826,103.7884524,,Vista Exchange Green,,,QUEENSTOWN,Vista Exchange Green,23.89 - 32.52,5,"#lifestyle, #luxury, #shopping"
Hougang 1,shopping_mall,1.3757064,103.879514,,Hougang Street 91,,,HOUGANG,Hougang Street 91,14.18 - 23.42,2,"#lifestyle, #shopping"
Alexandra Central,shopping_mall,1.2873166,103.8053276,,Alexandra Road,https://www.parkhotelgroup.com/alexandra/default-en.html,,BUKIT MERAH,Alexandra Road,13.17 - 20.72,4,"#lifestyle, #luxury, #shopping"
Old Airport Road Food Centre & Shopping Mall,shopping_mall,1.3082432,103.8858159,,Old Airport Road,,,GEYLANG,Old Airport Road,19.96 - 28.18,2,"#bonding, #family, #lifestyle, #shopping"
Djitsun Mall Bedok,shopping_mall,1.3261293,103.9295546,,Bedok North Street 1,,,BEDOK,Bedok North Street 1,22.12 - 32.07,3,"#bonding, #family, #lifestyle, #shopping"
Thomson Plaza,shopping_mall,1.3546008,103.8307608,,Upper Thomson Road,https://www.thomsonplaza.com.sg/,,BISHAN,Upper Thomson Road,11.54 - 20.53,2,"#family, #lifestyle, #shopping"
Bukit Timah Shopping Center,shopping_mall,1.3432601,103.7760509,,Upper Bukit Timah Road,https://www.bukittimahshoppingcentre.sg/,,BUKIT TIMAH,Upper Bukit Timah Road,17.97 - 26.91,2,"#family, #lifestyle, #shopping"
Beauty World Centre,shopping_mall,1.3423587,103.7765589,,Upper Bukit Timah Road,https://www.beautyworldcentre.net/,,BUKIT TIMAH,Upper Bukit Timah Road,14.62 - 20.79,3,"#family, #lifestyle, #luxury, #shopping"
Beauty World Plaza,shopping_mall,1.3418287,103.7763037,,Upper Bukit Timah Road,,,BUKIT TIMAH,Upper Bukit Timah Road,10.94 - 18.32,5,"#family, #lifestyle, #shopping"
The Clementi Mall,shopping_mall,1.3149817,103.7642331,,Commonwealth Avenue West,,,CLEMENTI,Commonwealth Avenue West,27.16 - 35.57,5,"#family, #lifestyle, #luxury, #shopping"
Grantral Mall @ Clementi,shopping_mall,1.3142963,103.7651379,,Commonwealth Avenue West,,,CLEMENTI,Commonwealth Avenue West,19.96 - 29.68,2,"#family, #lifestyle, #shopping"
Upper Serangoon Shopping Centre,shopping_mall,1.3536238,103.8788344,,Upper Serangoon Road,,,HOUGANG,Upper Serangoon Road,27.80 - 36.99,3,"#family, #lifestyle, #shopping"
